<Airports>
 <Airport
  city="Leoti"
  elev="3435"
  id="00AA"
  lat="38.704"
  lon="-101.474"
  name="Aero B Ranch"
  state="KS"
  var="">
  <rwy
   id="18/36"
   len="3435"
   type="TURF"
   wid="60"/>
 </Airport>
 <Airport
  city="Anchor Point"
  elev="252"
  id="00AK"
  lat="59.949"
  lon="-151.692"
  name="Lowell Field"
  state="AK"
  var="">
  <rwy
   id="N/S"
   len="2500"
   type="GRVL"
   wid="40"/>
 </Airport>
 <Airport
  city="Harvest"
  elev="820"
  id="00AL"
  lat="34.865"
  lon="-86.770"
  name="Epps Airpark"
  state="AL"
  var="0W">
  <rwy
   id="1/19"
   len="2300"
   type="TURF"
   wid="200"/>
 </Airport>
 <Airport
  city="Bennington"
  elev="1352"
  id="00AR"
  lat="38.969"
  lon="-97.602"
  name="Arland"
  state="KS"
  var="">
  <rwy
   id="18/36"
   len="2536"
   type="TURF"
   wid="250"/>
 </Airport>
 <Airport
  city="Alex"
  elev="1100"
  id="00AS"
  lat="34.943"
  lon="-97.818"
  name="Fulton"
  state="OK"
  var="">
  <rwy
   id="1/19"
   len="1450"
   type="TURF-G"
   wid="60"/>
 </Airport>
 <Airport
  city="Durango"
  elev="6684"
  id="00C"
  lat="37.203"
  lon="-107.869"
  name="Animas Air Park"
  state="CO"
  var="12E">
  <rwy
   id="1/19"
   len="5010"
   type="ASPH-G"
   wid="50"/>
 </Airport>
 <Airport
  city="Barstow"
  elev="3038"
  id="00CA"
  lat="35.355"
  lon="-116.885"
  name="Goldstone /gt"
  state="CA"
  var="14E">
  <rwy
   id="4/22"
   len="6000"
   type="ASPH"
   wid="80"/>
 </Airport>
 <Airport
  city="Biggs"
  elev="87"
  id="00CL"
  lat="39.427"
  lon="-121.763"
  name="Williams Ag"
  state="CA"
  var="">
  <rwy
   id="16/34"
   len="3517"
   type="ASPH"
   wid="40"/>
 </Airport>
 <Airport
  city="Broadus"
  elev="3282"
  id="00F"
  lat="45.470"
  lon="-105.457"
  name="Broadus"
  state="MT"
  var="10E">
  <rwy
   id="10/28"
   len="4400"
   type="ASPH-E"
   wid="75"/>
 </Airport>
 <Airport
  city="Bushnell"
  elev="53"
  id="00FA"
  lat="28.646"
  lon="-82.219"
  name="Grass Patch"
  state="FL"
  var="4W">
  <rwy
   id="8/26"
   len="3200"
   type="ASPH"
   wid="100"/>
 </Airport>
 <Airport
  city="Winfiled"
  elev="1212"
  id="00FD"
  lat="37.255"
  lon="-96.960"
  name="Davis Field"
  state="KS"
  var="">
  <rwy
   id="18/36"
   len="2020"
   type="TURF"
   wid="110"/>
 </Airport>
 <Airport
  city="Okeechobee"
  elev="35"
  id="00FL"
  lat="27.231"
  lon="-80.969"
  name="River Oak"
  state="FL"
  var="3W">
  <rwy
   id="12/30"
   len="4700"
   type="TURF"
   wid="100"/>
 </Airport>
 <Airport
  city="Lithonia"
  elev="700"
  id="00GA"
  lat="33.768"
  lon="-84.068"
  name="Lt World"
  state="GA"
  var="3W">
  <rwy
   id="9/27"
   len="2600"
   type="TURF"
   wid="80"/>
 </Airport>
 <Airport
  city="Clark Fork"
  elev="2064"
  id="00ID"
  lat="48.145"
  lon="-116.214"
  name="Delta Shores"
  state="ID"
  var="">
  <rwy
   id="8/26"
   len="3500"
   type="TURF"
   wid="40"/>
  <rwy
   id="11/29"
   len="2900"
   type="TURF"
   wid="40"/>
 </Airport>
 <Airport
  city="Mcdonald"
  elev="3359"
  id="00IG"
  lat="39.724"
  lon="-101.396"
  name="Goltl"
  state="KS"
  var="">
  <rwy
   id="18/36"
   len="2450"
   type="TURF-G"
   wid="70"/>
 </Airport>
 <Airport
  city="Polo"
  elev="840"
  id="00IL"
  lat="41.978"
  lon="-89.560"
  name="Hammer"
  state="IL"
  var="1E">
  <rwy
   id="18/36"
   len="2500"
   type="TURF-F"
   wid="75"/>
 </Airport>
 <Airport
  city="Kings"
  elev="820"
  id="00IS"
  lat="40.026"
  lon="-89.123"
  name="Hayenga&apos;s Cant Find Farms"
  state="IL"
  var="1E"/>
 <Airport
  city="Gardner"
  elev="1100"
  id="00KS"
  lat="38.728"
  lon="-94.931"
  name="Hayden Farm"
  state="KS"
  var="5E">
  <rwy
   id="17/35"
   len="2600"
   type="TURF"
   wid="85"/>
 </Airport>
 <Airport
  city="Stanford"
  elev="1265"
  id="00KY"
  lat="37.409"
  lon="-84.620"
  name="Robbins Roost"
  state="KY"
  var="">
  <rwy
   id="1/19"
   len="2100"
   type="TURF"
   wid="100"/>
 </Airport>
 <Airport
  city="Esterwood"
  elev="12"
  id="00LS"
  lat="30.136"
  lon="-92.429"
  name="Lejeune"
  state="LA"
  var="">
  <rwy
   id="18/36"
   len="2600"
   type="TURF"
   wid="100"/>
 </Airport>
 <Airport
  city="Bay Springs"
  elev="351"
  id="00M"
  lat="31.954"
  lon="-89.235"
  name="Thigpen Field"
  state="MS"
  var="2E">
  <rwy
   id="16/34"
   len="3000"
   type="ASPH-F"
   wid="50"/>
 </Airport>
 <Airport
  city="Federalsburg"
  elev="45"
  id="00MD"
  lat="38.757"
  lon="-75.754"
  name="Slater Fld"
  state="MD"
  var="10W">
  <rwy
   id="14/32"
   len="1700"
   type="TURF"
   wid="75"/>
 </Airport>
 <Airport
  city="Battle Lake"
  elev="1365"
  id="00MN"
  lat="46.300"
  lon="-95.700"
  name="Battle Lake Muni"
  state="MN"
  var="5E">
  <rwy
   id="6/24"
   len="2949"
   type="TURF-G"
   wid="200"/>
 </Airport>
 <Airport
  city="Alba"
  elev="970"
  id="00MO"
  lat="37.203"
  lon="-94.412"
  name="Cooper Flying Service"
  state="MO"
  var="5E">
  <rwy
   id="8/26"
   len="2400"
   type="TURF"
   wid="25"/>
 </Airport>
 <Airport
  city="Bridgeton"
  elev="108"
  id="00N"
  lat="39.473"
  lon="-75.184"
  name="Bucks"
  state="NJ"
  var="11W">
  <rwy
   id="18/36"
   len="1900"
   type="TURF-G"
   wid="150"/>
 </Airport>
 <Airport
  city="Louisburg"
  elev="348"
  id="00NC"
  lat="36.085"
  lon="-78.371"
  name="North Raleigh"
  state="NC"
  var="7W">
  <rwy
   id="5/23"
   len="2650"
   type="ASPH-G"
   wid="36"/>
 </Airport>
 <Airport
  city="West Bloomfield"
  elev="1000"
  id="00NY"
  lat="42.900"
  lon="-77.500"
  name="Weiss Airfield"
  state="NY"
  var="11W">
  <rwy
   id="3/21"
   len="2350"
   type="TURF"
   wid="80"/>
 </Airport>
 <Airport
  city="Sandsprings"
  elev="960"
  id="00OK"
  lat="36.199"
  lon="-96.218"
  name="Gull Bay Landing"
  state="OK"
  var="">
  <rwy
   id="17/35"
   len="2200"
   type="TURF-DIRT-F"
   wid="60"/>
 </Airport>
 <Airport
  city="Mercer"
  elev="1301"
  id="00PN"
  lat="41.299"
  lon="-80.211"
  name="Ferrell Field"
  state="PA"
  var="">
  <rwy
   id="12/30"
   len="500"
   type="TURF"
   wid="75"/>
 </Airport>
 <Airport
  city="Livingston"
  elev="150"
  id="00R"
  lat="30.686"
  lon="-95.018"
  name="Livingston Muni"
  state="TX"
  var="6E">
  <rwy
   id="12/30"
   len="3704"
   type="ASPH-G"
   wid="60"/>
 </Airport>
 <Airport
  city="Mc Kenzie Bridge"
  elev="1620"
  id="00S"
  lat="44.182"
  lon="-122.086"
  name="Mc Kenzie Bridge State"
  state="OR"
  var="19E">
  <rwy
   id="6/24"
   len="2600"
   type="TURF-F"
   wid="90"/>
 </Airport>
 <Airport
  city="Sumter"
  elev="150"
  id="00SC"
  lat="34.009"
  lon="-80.267"
  name="Flying O"
  state="SC"
  var="">
  <rwy
   id="8/26"
   len="2900"
   type="TURF"
   wid="100"/>
 </Airport>
 <Airport
  city="Gary"
  elev="1590"
  id="00SD"
  lat="44.809"
  lon="-96.499"
  name="Homan Field"
  state="SD"
  var="">
  <rwy
   id="18/36"
   len="2400"
   type="TURF"
   wid="50"/>
 </Airport>
 <Airport
  city="Manchester"
  elev="1100"
  id="00TN"
  lat="35.516"
  lon="-85.954"
  name="Ragsdale Road"
  state="TN"
  var="1W">
  <rwy
   id="9/27"
   len="1800"
   type="TURF"
   wid="150"/>
 </Airport>
 <Airport
  city="Everman"
  elev="670"
  id="00TS"
  lat="32.608"
  lon="-97.242"
  name="Alpine Range"
  state="TX"
  var="7E">
  <rwy
   id="1/19"
   len="1200"
   type="TURF"
   wid="45"/>
 </Airport>
 <Airport
  city="Van"
  elev="545"
  id="00TX"
  lat="32.544"
  lon="-95.673"
  name="Delva Field"
  state="TX"
  var="">
  <rwy
   id="16/34"
   len="3891"
   type="ASPH-G"
   wid="50"/>
 </Airport>
 <Airport
  city="Hardin"
  elev="3025"
  id="00U"
  lat="45.744"
  lon="-107.660"
  name="Big Horn County"
  state="MT"
  var="10E">
  <rwy
   id="8/26"
   len="4491"
   type="ASPH-E"
   wid="75"/>
 </Airport>
 <Airport
  city="Alton"
  elev="551"
  id="00VA"
  lat="36.576"
  lon="-78.999"
  name="Vaughan"
  state="VA"
  var="">
  <rwy
   id="1/19"
   len="1300"
   type="TURF"
   wid="100"/>
 </Airport>
 <Airport
  city="Hillsville"
  elev="2680"
  id="00VI"
  lat="36.663"
  lon="-80.500"
  name="Groundhog Mountain"
  state="VA"
  var="7W">
  <rwy
   id="9/27"
   len="1500"
   type="TURF"
   wid="50"/>
 </Airport>
 <Airport
  city="Colfax"
  elev="719"
  id="00W"
  lat="46.673"
  lon="-117.442"
  name="Lower Granite State"
  state="WA"
  var="19E">
  <rwy
   id="14/32"
   len="3400"
   type="GRAVEL-F"
   wid="50"/>
 </Airport>
 <Airport
  city="Longbranch"
  elev="150"
  id="00WA"
  lat="47.178"
  lon="-122.772"
  name="Howell"
  state="WA"
  var="19E">
  <rwy
   id="8/26"
   len="1600"
   type="TURF-G"
   wid="75"/>
 </Airport>
 <Airport
  city="Waupaca"
  elev="860"
  id="00WI"
  lat="44.304"
  lon="-89.050"
  name="Northern Lite"
  state="WI"
  var="1W">
  <rwy
   id="9/27"
   len="1000"
   type="TURF"
   wid="60"/>
 </Airport>
 <Airport
  city="Asotin"
  elev="2900"
  id="00WN"
  lat="46.250"
  lon="-117.249"
  name="Hawks Run"
  state="WA"
  var="">
  <rwy
   id="5/23"
   len="1440"
   type="TURF-G"
   wid="50"/>
 </Airport>
 <Airport
  city="Beverly"
  elev="2060"
  id="00WV"
  lat="38.829"
  lon="-79.866"
  name="Lazy J Aerodrome"
  state="WV"
  var="8W">
  <rwy
   id="5/23"
   len="1800"
   type="TURF"
   wid="100"/>
 </Airport>
 <Airport
  city="Hempstead"
  elev="271"
  id="00XA"
  lat="30.224"
  lon="-96.014"
  name="Weeski Ranch"
  state="TX"
  var="">
  <rwy
   id="15/33"
   len="4200"
   type="TURF"
   wid="60"/>
 </Airport>
 <Airport
  city="Purkeypile"
  elev="2041"
  id="01A"
  lat="62.941"
  lon="-152.270"
  name="Purkeypile"
  state="AK"
  var="24E">
  <rwy
   id="5/23"
   len="1176"
   type="GRAVEL-F"
   wid="50"/>
 </Airport>
 <Airport
  city="Crooked Creek"
  elev="733"
  id="01AA"
  lat="62.032"
  lon="-158.236"
  name="Donlin Creek"
  state="AK"
  var="14E">
  <rwy
   id="11/29"
   len="4913"
   type="GRVL-G"
   wid="75"/>
 </Airport>
 <Airport
  city="Clanton"
  elev="344"
  id="01AL"
  lat="32.946"
  lon="-86.514"
  name="Ware Island"
  state="AL"
  var="0W">
  <rwy
   id="N/S"
   len="2400"
   type="TURF"
   wid="60"/>
 </Airport>
 <Airport
  city="Placerville"
  elev="2594"
  id="01CL"
  lat="38.800"
  lon="-120.734"
  name="Swansboro Country"
  state="CA"
  var="16E">
  <rwy
   id="9/27"
   len="3100"
   type="ASPH-TRTD"
   wid="50"/>
 </Airport>
 <Airport
  city="Orlando"
  elev="55"
  id="01FA"
  lat="28.589"
  lon="-81.144"
  name="Rybolt Ranch"
  state="FL"
  var="3W">
  <rwy
   id="10/28"
   len="2000"
   type="TURF"
   wid="100"/>
  <rwy
   id="18/36"
   len="1500"
   type="TURF"
   wid="100"/>
 </Airport>
 <Airport
  city="Geneva"
  elev="19"
  id="01FL"
  lat="28.782"
  lon="-81.159"
  name="Cedar Knoll Flying Ranch"
  state="FL"
  var="4W">
  <rwy
   id="18/36"
   len="3000"
   type="TURF"
   wid="75"/>
 </Airport>
 <Airport
  city="Perry"
  elev="1558"
  id="01G"
  lat="42.741"
  lon="-78.052"
  name="Perry-Warsaw"
  state="NY"
  var="10W">
  <rwy
   id="4/22"
   len="1806"
   type="TURF-G"
   wid="60"/>
  <rwy
   id="10/28"
   len="3429"
   type="ASPH-G"
   wid="60"/>
 </Airport>
 <Airport
  city="Wrightsville"
  elev="375"
  id="01GE"
  lat="32.674"
  lon="-82.771"
  name="The Farm"
  state="GA"
  var="">
  <rwy
   id="10/28"
   len="2560"
   type="TURF"
   wid="75"/>
 </Airport>
 <Airport
  city="Maysville"
  elev="725"
  id="01IA"
  lat="41.661"
  lon="-90.741"
  name="Stender"
  state="IA"
  var="2E">
  <rwy
   id="17/35"
   len="2575"
   type="TURF-F"
   wid="50"/>
 </Airport>
 <Airport
  city="Lava Hot Springs"
  elev="5268"
  id="01ID"
  lat="42.608"
  lon="-112.032"
  name="Lava Hot Springs"
  state="ID"
  var="15E">
  <rwy
   id="14/32"
   len="2894"
   type="TURF-F"
   wid="100"/>
 </Airport>
 <Airport
  city="Dow"
  elev="670"
  id="01IS"
  lat="39.016"
  lon="-90.318"
  name="William E Koenig"
  state="IL"
  var="2E">
  <rwy
   id="9/27"
   len="1300"
   type="TURF"
   wid="100"/>
 </Airport>
 <Airport
  city="Hilliard"
  elev="59"
  id="01J"
  lat="30.686"
  lon="-81.906"
  name="Hilliard Airpark"
  state="FL"
  var="3W">
  <rwy
   id="18/36"
   len="3600"
   type="TURF-F"
   wid="125"/>
 </Airport>
 <Airport
  city="Caldwell"
  elev="1157"
  id="01K"
  lat="37.037"
  lon="-97.586"
  name="Caldwell Muni"
  state="KS"
  var="7E">
  <rwy
   id="17/35"
   len="2460"
   type="TURF-G"
   wid="110"/>
 </Airport>
 <Airport
  city="Oak Ridge"
  elev="90"
  id="01LA"
  lat="32.639"
  lon="-91.774"
  name="Barham"
  state="LA"
  var="4E">
  <rwy
   id="9/27"
   len="2000"
   type="TURF"
   wid="60"/>
 </Airport>
 <Airport
  city="Slaughter"
  elev="125"
  id="01LS"
  lat="30.723"
  lon="-91.077"
  name="Country Breeze"
  state="LA"
  var="2E">
  <rwy
   id="9/27"
   len="1800"
   type="TURF"
   wid="150"/>
 </Airport>
 <Airport
  city="Belmont"
  elev="584"
  id="01M"
  lat="34.492"
  lon="-88.201"
  name="Tishomingo County"
  state="MS"
  var="1E">
  <rwy
   id="17/35"
   len="4026"
   type="ASPH-F"
   wid="59"/>
 </Airport>
 <Airport
  city="Fortine"
  elev="3141"
  id="01MT"
  lat="48.789"
  lon="-114.880"
  name="Crystal Lakes Resort"
  state="MT"
  var="19E">
  <rwy
   id="13/31"
   len="5000"
   type="ASPH-G"
   wid="70"/>
 </Airport>
 <Airport
  city="Holly Ridge"
  elev="65"
  id="01NC"
  lat="34.475"
  lon="-77.581"
  name="Topsail Airpark"
  state="NC"
  var="8W">
  <rwy
   id="3/21"
   len="3200"
   type="TURF"
   wid="75"/>
  <rwy
   id="18/36"
   len="2000"
   type="ASPH-TURF"
   wid="75"/>
 </Airport>
 <Airport
  city="Wellfleet"
  elev="3000"
  id="01NE"
  lat="40.844"
  lon="-100.653"
  name="Detour"
  state="NE"
  var="9E">
  <rwy
   id="10/28"
   len="2750"
   type="TURF"
   wid="50"/>
 </Airport>
 <Airport
  city="Canaan"
  elev="835"
  id="01NH"
  lat="43.645"
  lon="-72.087"
  name="Moore Airfield"
  state="NH"
  var="16W">
  <rwy
   id="17/35"
   len="600"
   type="TURF"
   wid="100"/>
 </Airport>
 <Airport
  city="Granville"
  elev="421"
  id="01NK"
  lat="43.425"
  lon="-73.262"
  name="Granville"
  state="NY"
  var="15W">
  <rwy
   id="16/34"
   len="2500"
   type="TURF-G"
   wid="50"/>
 </Airport>
 <Airport
  city="Artesia"
  elev="3630"
  id="01NM"
  lat="33.009"
  lon="-104.540"
  name="Champion Ranch"
  state="NM"
  var="">
  <rwy
   id="2/20"
   len="2700"
   type="DIRT"
   wid="70"/>
  <rwy
   id="9/27"
   len="2000"
   type="DIRT"
   wid="70"/>
 </Airport>
 <Airport
  city="Yerington"
  elev="4600"
  id="01NV"
  lat="38.764"
  lon="-119.027"
  name="Lantana Ranch"
  state="NV"
  var="15E">
  <rwy
   id="18/36"
   len="2000"
   type="GRVL"
   wid="60"/>
 </Airport>
 <Airport
  city="Meshoppen"
  elev="1040"
  id="01PS"
  lat="41.596"
  lon="-76.030"
  name="Nort&apos;s Resort"
  state="PA"
  var="12W">
  <rwy
   id="3/21"
   len="1200"
   type="TURF-G"
   wid="120"/>
 </Airport>
 <Airport
  city="York"
  elev="779"
  id="01SC"
  lat="35.032"
  lon="-81.253"
  name="York"
  state="SC"
  var="5W">
  <rwy
   id="18/36"
   len="2580"
   type="TURF-F"
   wid="118"/>
 </Airport>
 <Airport
  city="Forney"
  elev="505"
  id="01TE"
  lat="32.738"
  lon="-96.428"
  name="Smith Field"
  state="TX"
  var="6E">
  <rwy
   id="4/22"
   len="2433"
   type="TURF-F"
   wid="55"/>
 </Airport>
 <Airport
  city="Collierville"
  elev="370"
  id="01TN"
  lat="34.996"
  lon="-89.731"
  name="Colonial Air Park"
  state="TN"
  var="2E">
  <rwy
   id="18/36"
   len="2700"
   type="TURF"
   wid="100"/>
 </Airport>
 <Airport
  city="Groesbeck"
  elev="500"
  id="01TS"
  lat="31.565"
  lon="-96.546"
  name="Fort Parker Flying Field"
  state="TX"
  var="">
  <rwy
   id="17/35"
   len="2000"
   type="TURF"
   wid="70"/>
 </Airport>
 <Airport
  city="Uvalde"
  elev="1293"
  id="01TX"
  lat="29.461"
  lon="-100.114"
  name="Ox Ranch"
  state="TX"
  var="">
  <rwy
   id="17/35"
   len="5800"
   type="ASPH"
   wid="70"/>
 </Airport>
 <Airport
  city="Duckwater"
  elev="5133"
  id="01U"
  lat="38.853"
  lon="-115.635"
  name="Duckwater"
  state="NV"
  var="15E">
  <rwy
   id="3/21"
   len="2700"
   type="DIRT-F"
   wid="75"/>
  <rwy
   id="15/33"
   len="3400"
   type="DIRT-F"
   wid="80"/>
 </Airport>
 <Airport
  city="La Sal"
  elev="6000"
  id="01UT"
  lat="38.308"
  lon="-109.397"
  name="La Sal Junction"
  state="UT"
  var="13E"/>
 <Airport
  city="Berryville"
  elev="500"
  id="01VA"
  lat="39.125"
  lon="-77.925"
  name="Pickles"
  state="VA"
  var="9W">
  <rwy
   id="3/21"
   len="1500"
   type="TURF"
   wid="60"/>
 </Airport>
 <Airport
  city="Tomah"
  elev="930"
  id="01WI"
  lat="44.010"
  lon="-90.389"
  name="Prehn Cranberry Company"
  state="WI"
  var="0E">
  <rwy
   id="1/19"
   len="2600"
   type="TURF"
   wid="120"/>
 </Airport>
 <Airport
  city="Moorcroft"
  elev="4250"
  id="01WY"
  lat="44.347"
  lon="-104.811"
  name="Keyhole"
  state="WY"
  var="12E">
  <rwy
   id="12/30"
   len="4360"
   type="DIRT-TURF-G"
   wid="75"/>
  <rwy
   id="16/34"
   len="2600"
   type="DIRT-TURF-G"
   wid="65"/>
 </Airport>
 <Airport
  city="Clanton"
  elev="584"
  id="02A"
  lat="32.850"
  lon="-86.611"
  name="Chilton County"
  state="AL"
  var="4W">
  <rwy
   id="8/26"
   len="4007"
   type="ASPH-G"
   wid="100"/>
 </Airport>
 <Airport
  city="Big Lake"
  elev="160"
  id="02AA"
  lat="61.507"
  lon="-149.912"
  name="H &amp; H Field"
  state="AK"
  var="">
  <rwy
   id="3/21"
   len="675"
   type="GRVL"
   wid="30"/>
 </Airport>
 <Airport
  city="Willow"
  elev="190"
  id="02AK"
  lat="61.877"
  lon="-150.098"
  name="Rustic Wilderness"
  state="AK"
  var="25E">
  <rwy
   id="15/33"
   len="2200"
   type="GRVL"
   wid="45"/>
 </Airport>
 <Airport
  city="Foley"
  elev="61"
  id="02AL"
  lat="30.371"
  lon="-87.764"
  name="Bass Field"
  state="AL"
  var="0W">
  <rwy
   id="18/36"
   len="2000"
   type="TURF"
   wid="150"/>
 </Airport>
 <Airport
  city="Murfreesboro"
  elev="400"
  id="02AR"
  lat="34.117"
  lon="-93.697"
  name="Mount Moriah Field"
  state="AR"
  var="">
  <rwy
   id="2/20"
   len="2100"
   type="TURF-F"
   wid="60"/>
 </Airport>
 <Airport
  city="Brookfield"
  elev="842"
  id="02C"
  lat="43.090"
  lon="-88.179"
  name="Capitol"
  state="WI"
  var="1W">
  <rwy
   id="3/21"
   len="3010"
   type="ASPH-F"
   wid="44"/>
  <rwy
   id="9/27"
   len="3395"
   type="TURF-F"
   wid="100"/>
  <rwy
   id="18/36"
   len="1600"
   type="TURF-F"
   wid="80"/>
 </Airport>
 <Airport
  city="Clarksdale"
  elev="165"
  id="02CD"
  lat="34.130"
  lon="-90.524"
  name="Shannon Field"
  state="MS"
  var="">
  <rwy
   id="15/33"
   len="2500"
   type="CONC-TURF"
   wid="100"/>
 </Airport>
 <Airport
  city="Frazier Park"
  elev="5160"
  id="02CL"
  lat="34.761"
  lon="-119.059"
  name="Conover Air Lodge"
  state="CA"
  var="14E">
  <rwy
   id="16/34"
   len="3000"
   type="DIRT"
   wid="60"/>
 </Airport>
 <Airport
  city="Monte Vista"
  elev="7615"
  id="02CO"
  lat="37.643"
  lon="-106.047"
  name="Mc Cullough"
  state="CO"
  var="12E">
  <rwy
   id="17/35"
   len="2670"
   type="GRAVEL"
   wid="50"/>
 </Airport>
 <Airport
  city="Groveland"
  elev="121"
  id="02FA"
  lat="28.527"
  lon="-81.875"
  name="Osborn Airfield"
  state="FL"
  var="2W">
  <rwy
   id="18/36"
   len="2485"
   type="TURF"
   wid="150"/>
 </Airport>
 <Airport
  city="Defuniak Springs"
  elev="215"
  id="02FL"
  lat="30.643"
  lon="-86.124"
  name="Cuchens"
  state="FL"
  var="">
  <rwy
   id="12/30"
   len="1800"
   type="TURF-F"
   wid="100"/>
 </Airport>
 <Airport
  city="East Liverpool"
  elev="1160"
  id="02G"
  lat="40.673"
  lon="-80.641"
  name="Columbiana County"
  state="OH"
  var="8W">
  <rwy
   id="7/25"
   len="3503"
   type="ASPH-G"
   wid="75"/>
 </Airport>
 <Airport
  city="Commerce"
  elev="884"
  id="02GA"
  lat="34.203"
  lon="-83.429"
  name="Doug Bolton Field"
  state="GA"
  var="3W">
  <rwy
   id="8/26"
   len="1200"
   type="TURF"
   wid="100"/>
  <rwy
   id="13/31"
   len="1500"
   type="TURF"
   wid="100"/>
 </Airport>
 <Airport
  city="Euharlee"
  elev="710"
  id="02GE"
  lat="34.175"
  lon="-84.924"
  name="Etowah Fields"
  state="GA"
  var="">
  <rwy
   id="9/27"
   len="3400"
   type="TURF"
   wid="100"/>
 </Airport>
 <Airport
  city="Cascade"
  elev="5634"
  id="02ID"
  lat="44.555"
  lon="-115.305"
  name="Morgan Ranch"
  state="ID"
  var="17E"/>
 <Airport
  city="Muncie"
  elev="904"
  id="02IN"
  lat="40.209"
  lon="-85.541"
  name="Diamond P Field"
  state="IN"
  var="3W">
  <rwy
   id="9/27"
   len="1020"
   type="TURF"
   wid="150"/>
 </Airport>
 <Airport
  city="St Marys"
  elev="1170"
  id="02KS"
  lat="39.222"
  lon="-96.055"
  name="Jmj Landing"
  state="KS"
  var="6E">
  <rwy
   id="11/29"
   len="1650"
   type="TURF"
   wid="100"/>
  <rwy
   id="18/36"
   len="1950"
   type="TURF"
   wid="150"/>
 </Airport>
 <Airport
  city="Brandywine"
  elev="141"
  id="02MD"
  lat="38.673"
  lon="-76.710"
  name="Garner Field"
  state="MD"
  var="">
  <rwy
   id="9/27"
   len="2000"
   type="TURF"
   wid="75"/>
 </Airport>
 <Airport
  city="Acton"
  elev="700"
  id="02ME"
  lat="43.537"
  lon="-70.929"
  name="Nadeau&apos;s"
  state="ME"
  var="16W">
  <rwy
   id="14/32"
   len="2400"
   type="TURF"
   wid="60"/>
 </Airport>
 <Airport
  city="Greenville"
  elev="850"
  id="02MI"
  lat="43.157"
  lon="-85.149"
  name="Fairplains Airpark"
  state="MI"
  var="">
  <rwy
   id="9/27"
   len="2000"
   type="TURF"
   wid="100"/>
 </Airport>
 <Airport
  city="Troy"
  elev="630"
  id="02MO"
  lat="39.046"
  lon="-91.028"
  name="Troy Airpark"
  state="MO"
  var="2E">
  <rwy
   id="8/26"
   len="2100"
   type="ASPH-G"
   wid="25"/>
 </Airport>
 <Airport
  city="Rochdale"
  elev="153"
  id="02MS"
  lat="34.100"
  lon="-90.847"
  name="Watts Field"
  state="MS"
  var="3E">
  <rwy
   id="12/30"
   len="2150"
   type="TURF-F"
   wid="60"/>
 </Airport>
 <Airport
  city="Culbertson"
  elev="2112"
  id="02MT"
  lat="47.980"
  lon="-104.709"
  name="Steppler Field"
  state="MT"
  var="">
  <rwy
   id="14/32"
   len="2700"
   type="DIRT"
   wid="110"/>
 </Airport>
 <Airport
  city="Winnemucca"
  elev="4443"
  id="02NV"
  lat="41.301"
  lon="-118.928"
  name="Paiute Meadows"
  state="NV"
  var="16E">
  <rwy
   id="9/27"
   len="2200"
   type="TURF"
   wid="50"/>
 </Airport>
 <Airport
  city="Lamont"
  elev="1033"
  id="02OK"
  lat="36.619"
  lon="-97.535"
  name="Bobbitt"
  state="OK"
  var="">
  <rwy
   id="17/35"
   len="2396"
   type="TURF-G"
   wid="70"/>
 </Airport>
 <Airport
  city="Vega Baja"
  elev="15"
  id="02PR"
  lat="18.453"
  lon="-66.367"
  name="Cuylers"
  state="PR"
  var="12W">
  <rwy
   id="6/24"
   len="2000"
   type="TURF"
   wid="50"/>
 </Airport>
 <Airport
  city="Estill"
  elev="111"
  id="02SC"
  lat="32.759"
  lon="-81.225"
  name="Harpers"
  state="SC"
  var="4W">
  <rwy
   id="4/22"
   len="3600"
   type="TURF-G"
   wid="150"/>
 </Airport>
 <Airport
  city="Wise River"
  elev="5830"
  id="02T"
  lat="45.770"
  lon="-112.980"
  name="Wise River"
  state="MT"
  var="17E">
  <rwy
   id="2/20"
   len="4050"
   type="TURF-DIRT-G"
   wid="60"/>
 </Airport>
 <Airport
  city="Murfreesboro"
  elev="840"
  id="02TN"
  lat="35.781"
  lon="-86.584"
  name="Ellis Field"
  state="TN"
  var="2W">
  <rwy
   id="11/29"
   len="1600"
   type="TURF"
   wid="120"/>
 </Airport>
 <Airport
  city="Charlotte"
  elev="334"
  id="02TS"
  lat="28.663"
  lon="-98.723"
  name="El Tesoro Ranch"
  state="TX"
  var="">
  <rwy
   id="2/20"
   len="4000"
   type="ASPH-E"
   wid="40"/>
 </Airport>
 <Airport
  city="Lucin"
  elev="4412"
  id="02UT"
  lat="41.366"
  lon="-113.843"
  name="Lucin"
  state="UT"
  var="15E">
  <rwy
   id="7/25"
   len="4000"
   type="DIRT"
   wid="50"/>
  <rwy
   id="16/34"
   len="4000"
   type="DIRT-P"
   wid="50"/>
 </Airport>
 <Airport
  city="Culpeper"
  elev="320"
  id="02VA"
  lat="38.436"
  lon="-77.857"
  name="The Greenhouse"
  state="VA"
  var="9W">
  <rwy
   id="18/36"
   len="3000"
   type="TURF"
   wid="80"/>
 </Airport>
 <Airport
  city="South Prairie"
  elev="690"
  id="02WA"
  lat="47.152"
  lon="-122.094"
  name="Cawleys South Prairie"
  state="WA"
  var="20E">
  <rwy
   id="16/34"
   len="2650"
   type="TURF"
   wid="50"/>
 </Airport>
 <Airport
  city="Hudson"
  elev="920"
  id="02WI"
  lat="45.032"
  lon="-92.656"
  name="Beer"
  state="WI"
  var="3E">
  <rwy
   id="18/36"
   len="2200"
   type="TURF"
   wid="60"/>
 </Airport>
 <Airport
  city="Tonasket"
  elev="2150"
  id="02WN"
  lat="48.746"
  lon="-119.319"
  name="Fowler Fld"
  state="WA"
  var="">
  <rwy
   id="13/31"
   len="1500"
   type="DIRT"
   wid="30"/>
 </Airport>
 <Airport
  city="Honey Grove"
  elev="675"
  id="02XA"
  lat="33.591"
  lon="-95.883"
  name="Jls Farms"
  state="TX"
  var="">
  <rwy
   id="18/36"
   len="1950"
   type="TURF-F"
   wid="50"/>
 </Airport>
 <Airport
  city="Elroy"
  elev="510"
  id="02XS"
  lat="30.148"
  lon="-97.663"
  name="Seidel Ranch"
  state="TX"
  var="7E">
  <rwy
   id="2/20"
   len="1500"
   type="TURF"
   wid="40"/>
  <rwy
   id="11/29"
   len="1320"
   type="TURF"
   wid="40"/>
 </Airport>
 <Airport
  city="Hereford"
  elev="4275"
  id="03AZ"
  lat="31.433"
  lon="-110.084"
  name="Thompson Intl Aviation"
  state="AZ"
  var="12E"/>
 <Airport
  city="Mansfield"
  elev="1520"
  id="03B"
  lat="37.127"
  lon="-92.622"
  name="Mansfield Muni"
  state="MO"
  var="3E">
  <rwy
   id="7/25"
   len="3000"
   type="ASPH-F"
   wid="50"/>
 </Airport>
 <Airport
  city="Platteville"
  elev="4950"
  id="03CO"
  lat="40.213"
  lon="-104.744"
  name="Kugel-Strong"
  state="CO"
  var="11E">
  <rwy
   id="13/31"
   len="4000"
   type="ASPH-G"
   wid="30"/>
 </Airport>
 <Airport
  city="Memphis"
  elev="813"
  id="03D"
  lat="40.447"
  lon="-92.227"
  name="Memphis Memorial"
  state="MO"
  var="3E">
  <rwy
   id="12/30"
   len="3300"
   type="CONC-F"
   wid="60"/>
 </Airport>
 <Airport
  city="Lake Placid"
  elev="70"
  id="03FA"
  lat="27.353"
  lon="-81.408"
  name="Lake Persimmon Airstrip"
  state="FL"
  var="2W"/>
 <Airport
  city="Statesboro"
  elev="238"
  id="03GA"
  lat="32.562"
  lon="-81.858"
  name="Hia"
  state="GA"
  var="">
  <rwy
   id="10/28"
   len="1990"
   type="TURF-G"
   wid="65"/>
  <rwy
   id="11/29"
   len="1955"
   type="TURF-G"
   wid="60"/>
 </Airport>
 <Airport
  city="Council"
  elev="3180"
  id="03ID"
  lat="44.794"
  lon="-116.533"
  name="Flying Y Ranch"
  state="ID"
  var="18E">
  <rwy
   id="11/29"
   len="1800"
   type="TURF"
   wid="100"/>
 </Airport>
 <Airport
  city="Monee"
  elev="750"
  id="03IL"
  lat="41.402"
  lon="-87.817"
  name="Wix"
  state="IL"
  var="1W">
  <rwy
   id="18/36"
   len="2600"
   type="TURF"
   wid="105"/>
 </Airport>
 <Airport
  city="Henderson"
  elev="385"
  id="03KY"
  lat="37.796"
  lon="-87.539"
  name="Flying H Farms"
  state="KY"
  var="0W">
  <rwy
   id="3/21"
   len="2300"
   type="TURF"
   wid="80"/>
 </Airport>
 <Airport
  city="Hadley"
  elev="150"
  id="03MA"
  lat="42.393"
  lon="-72.552"
  name="Hadley"
  state="MA"
  var="15W">
  <rwy
   id="12/30"
   len="1600"
   type="TURF"
   wid="60"/>
 </Airport>
 <Airport
  city="Harrison"
  elev="556"
  id="03ME"
  lat="44.084"
  lon="-70.627"
  name="Maple Ridge"
  state="ME"
  var="17W">
  <rwy
   id="18/36"
   len="2400"
   type="TURF"
   wid="90"/>
 </Airport>
 <Airport
  city="Lakefield"
  elev="1435"
  id="03MN"
  lat="43.625"
  lon="-95.225"
  name="Nauerth Land Ranch"
  state="MN"
  var="4E">
  <rwy
   id="17/35"
   len="1940"
   type="TURF"
   wid="75"/>
 </Airport>
 <Airport
  city="Richmond"
  elev="930"
  id="03MO"
  lat="39.289"
  lon="-93.992"
  name="Dorton"
  state="MO"
  var="">
  <rwy
   id="9/27"
   len="2100"
   type="TURF-GRVL-F"
   wid="100"/>
 </Airport>
 <Airport
  city="Archie"
  elev="874"
  id="03MU"
  lat="38.492"
  lon="-94.412"
  name="Mc Donnell"
  state="MO"
  var="5E">
  <rwy
   id="17/35"
   len="2400"
   type="ASPH"
   wid="24"/>
 </Airport>
 <Airport
  city="Utirik Island"
  elev="4"
  id="03N"
  lat="11.233"
  lon="169.850"
  name="Utirik"
  state="MH"
  var="9E">
  <rwy
   id="7/25"
   len="2400"
   type="GRVL"
   wid="50"/>
 </Airport>
 <Airport
  city="Carolina Beach"
  elev="35"
  id="03NC"
  lat="34.104"
  lon="-77.904"
  name="Pilots Ridge"
  state="NC"
  var="7W">
  <rwy
   id="9/27"
   len="3000"
   type="ASPH-G"
   wid="40"/>
 </Airport>
 <Airport
  city="Edinburg"
  elev="1045"
  id="03ND"
  lat="48.626"
  lon="-97.829"
  name="Olafson Brothers"
  state="ND"
  var="7E">
  <rwy
   id="17/35"
   len="2600"
   type="TURF"
   wid="50"/>
 </Airport>
 <Airport
  city="Ruby Valley"
  elev="6120"
  id="03NV"
  lat="40.584"
  lon="-115.298"
  name="Llama Ranch"
  state="NV"
  var="15E">
  <rwy
   id="18/36"
   len="3200"
   type="TURF-P"
   wid="30"/>
 </Airport>
 <Airport
  city="Riverhead"
  elev="95"
  id="03NY"
  lat="40.958"
  lon="-72.717"
  name="Talmage Fld"
  state="NY"
  var="14W">
  <rwy
   id="16/34"
   len="2000"
   type="TURF"
   wid="75"/>
 </Airport>
 <Airport
  city="Fremont"
  elev="580"
  id="03OH"
  lat="41.418"
  lon="-83.017"
  name="Gibbs Field"
  state="OH"
  var="5W">
  <rwy
   id="N/S"
   len="2100"
   type="TURF"
   wid="60"/>
 </Airport>
 <Airport
  city="Sapulpa"
  elev="890"
  id="03OK"
  lat="36.041"
  lon="-96.161"
  name="Sahoma Lake"
  state="OK"
  var="6E">
  <rwy
   id="18/36"
   len="1200"
   type="TURF"
   wid="50"/>
 </Airport>
 <Airport
  city="Troy"
  elev="3340"
  id="03OR"
  lat="45.855"
  lon="-117.484"
  name="Powwatka Ridge"
  state="OR"
  var="18E">
  <rwy
   id="7/25"
   len="2950"
   type="CONC"
   wid="60"/>
 </Airport>
 <Airport
  city="Bonner Springs"
  elev="980"
  id="03PR"
  lat="39.066"
  lon="-94.922"
  name="Sun View Field"
  state="KS"
  var="">
  <rwy
   id="9/27"
   len="2926"
   type="TURF-G"
   wid="65"/>
 </Airport>
 <Airport
  city="Sandy"
  elev="704"
  id="03S"
  lat="45.402"
  lon="-122.229"
  name="Sandy River"
  state="OR"
  var="19E">
  <rwy
   id="8/26"
   len="2115"
   type="TURF-G"
   wid="100"/>
 </Airport>
 <Airport
  city="Hebbronville"
  elev="600"
  id="03TE"
  lat="27.491"
  lon="-98.669"
  name="Barronena Ranch"
  state="TX"
  var="7E">
  <rwy
   id="12/30"
   len="3500"
   type="TURF"
   wid="100"/>
 </Airport>
 <Airport
  city="Mexican Hat"
  elev="5315"
  id="03UT"
  lat="37.121"
  lon="-109.986"
  name="A Z Minerals Corporation"
  state="UT"
  var="13E">
  <rwy
   id="NW/SE"
   len="3250"
   type="GRAVEL"
   wid="35"/>
 </Airport>
 <Airport
  city="Spangle"
  elev="2440"
  id="03WA"
  lat="47.408"
  lon="-117.372"
  name="Spangle Field"
  state="WA"
  var="19E">
  <rwy
   id="18/36"
   len="2800"
   type="GRAVEL"
   wid="60"/>
 </Airport>
 <Airport
  city="Goldendale"
  elev="2320"
  id="03WN"
  lat="45.875"
  lon="-120.673"
  name="Aerostone Ranch"
  state="WA"
  var="">
  <rwy
   id="7/25"
   len="902"
   type="TURF"
   wid="100"/>
  <rwy
   id="9/27"
   len="1626"
   type="GRVL"
   wid="50"/>
 </Airport>
 <Airport
  city="Mertzon"
  elev="2100"
  id="03XS"
  lat="31.318"
  lon="-100.754"
  name="Creekside"
  state="TX"
  var="">
  <rwy
   id="4/22"
   len="3200"
   type="TURF-DIRT"
   wid="50"/>
  <rwy
   id="15/33"
   len="1600"
   type="TURF"
   wid="50"/>
 </Airport>
 <Airport
  city="Luverne"
  elev="302"
  id="04A"
  lat="31.736"
  lon="-86.262"
  name="Frank Sikes"
  state="AL"
  var="0W">
  <rwy
   id="4/22"
   len="4649"
   type="ASPH-F"
   wid="80"/>
 </Airport>
 <Airport
  city="Soldotna"
  elev="250"
  id="04AA"
  lat="60.536"
  lon="-150.811"
  name="Phils"
  state="AK"
  var="">
  <rwy
   id="5/23"
   len="825"
   type="TURF-G"
   wid="68"/>
  <rwy
   id="16/34"
   len="1300"
   type="TURF-G"
   wid="100"/>
 </Airport>
 <Airport
  city="Palmdale"
  elev="3028"
  id="04CA"
  lat="34.567"
  lon="-117.670"
  name="Gray Butte Field"
  state="CA"
  var="14E">
  <rwy
   id="8/26"
   len="8000"
   type="ASPH"
   wid="150"/>
 </Airport>
 <Airport
  city="Julian"
  elev="2310"
  id="04CL"
  lat="33.082"
  lon="-116.441"
  name="Desert Wings Sky Ranch"
  state="CA"
  var="13E">
  <rwy
   id="8/26"
   len="1900"
   type="GRVL-DIRT"
   wid="100"/>
 </Airport>
 <Airport
  city="Homestead"
  elev="9"
  id="04FA"
  lat="25.559"
  lon="-80.515"
  name="Richards Field"
  state="FL"
  var="3W">
  <rwy
   id="9/27"
   len="2620"
   type="TURF"
   wid="212"/>
 </Airport>
 <Airport
  city="Ormond"
  elev="30"
  id="04FL"
  lat="29.239"
  lon="-81.222"
  name="Cross Creek Farms"
  state="FL"
  var="3W">
  <rwy
   id="9/27"
   len="3000"
   type="TURF"
   wid="100"/>
 </Airport>
 <Airport
  city="Youngstown"
  elev="1043"
  id="04G"
  lat="41.130"
  lon="-80.620"
  name="Lansdowne"
  state="OH"
  var="8W">
  <rwy
   id="2/20"
   len="3073"
   type="ASPH-P"
   wid="50"/>
 </Airport>
 <Airport
  city="Columbus"
  elev="920"
  id="04I"
  lat="39.911"
  lon="-83.189"
  name="Columbus Southwest"
  state="OH"
  var="5W">
  <rwy
   id="6/24"
   len="2382"
   type="TURF-G"
   wid="120"/>
 </Airport>
 <Airport
  city="Packwood"
  elev="801"
  id="04IA"
  lat="41.088"
  lon="-92.055"
  name="Middlekoop"
  state="IA"
  var="3E">
  <rwy
   id="18/36"
   len="2310"
   type="TURF-G"
   wid="84"/>
 </Airport>
 <Airport
  city="Emmett"
  elev="2343"
  id="04ID"
  lat="43.878"
  lon="-116.537"
  name="Lanham Field"
  state="ID"
  var="17E">
  <rwy
   id="7/25"
   len="3000"
   type="DIRT-F"
   wid="25"/>
 </Airport>
 <Airport
  city="Hudson"
  elev="755"
  id="04IL"
  lat="40.638"
  lon="-89.007"
  name="Schertz Aerial Service - Hudson"
  state="IL"
  var="0E">
  <rwy
   id="N/S"
   len="1700"
   type="TURF"
   wid="70"/>
 </Airport>
 <Airport
  city="Mansfield"
  elev="728"
  id="04IS"
  lat="40.179"
  lon="-88.569"
  name="Van Gorder"
  state="IL"
  var="0E">
  <rwy
   id="9/27"
   len="2200"
   type="TURF"
   wid="150"/>
 </Airport>
 <Airport
  city="Minneola"
  elev="2551"
  id="04KS"
  lat="37.399"
  lon="-100.037"
  name="Kraemer Airfield"
  state="KS"
  var="">
  <rwy
   id="3/21"
   len="1400"
   type="TURF"
   wid="60"/>
  <rwy
   id="9/27"
   len="2000"
   type="TURF"
   wid="60"/>
 </Airport>
 <Airport
  city="Hiseville"
  elev="710"
  id="04KY"
  lat="37.135"
  lon="-85.789"
  name="Natchez Trace Farm"
  state="KY"
  var="2W">
  <rwy
   id="15/33"
   len="1700"
   type="ASPH"
   wid="30"/>
 </Airport>
 <Airport
  city="Pittsboro"
  elev="387"
  id="04M"
  lat="33.930"
  lon="-89.343"
  name="Calhoun County"
  state="MS"
  var="2E">
  <rwy
   id="15/33"
   len="3200"
   type="ASPH-G"
   wid="60"/>
 </Airport>
 <Airport
  city="Haverhill"
  elev="200"
  id="04MA"
  lat="42.810"
  lon="-71.139"
  name="Goddard"
  state="MA"
  var="16W">
  <rwy
   id="16/34"
   len="2100"
   type="TURF"
   wid="300"/>
 </Airport>
 <Airport
  city="Mercer"
  elev="625"
  id="04ME"
  lat="44.667"
  lon="-69.894"
  name="Beech Hill"
  state="ME"
  var="18W">
  <rwy
   id="15/33"
   len="1950"
   type="TURF"
   wid="120"/>
 </Airport>
 <Airport
  city="Eaton Rapids"
  elev="880"
  id="04MI"
  lat="42.534"
  lon="-84.628"
  name="Rapids Airway"
  state="MI"
  var="4W">
  <rwy
   id="18/36"
   len="2000"
   type="TURF-G"
   wid="100"/>
 </Airport>
 <Airport
  city="Kelliher"
  elev="1195"
  id="04MN"
  lat="47.986"
  lon="-94.687"
  name="Helblad"
  state="MN"
  var="4E">
  <rwy
   id="10/28"
   len="2500"
   type="TURF"
   wid="150"/>
 </Airport>
 <Airport
  city="Rolling Fork"
  elev="100"
  id="04MS"
  lat="32.940"
  lon="-90.837"
  name="Nick&apos;s Flying Service Inc"
  state="MS"
  var="3E">
  <rwy
   id="17/35"
   len="3400"
   type="ASPH-TURF"
   wid="100"/>
 </Airport>
 <Airport
  city="Cohagen"
  elev="2715"
  id="04MT"
  lat="47.137"
  lon="-106.488"
  name="Pluhar"
  state="MT"
  var="14E">
  <rwy
   id="N/S"
   len="1900"
   type="TURF"
   wid="100"/>
 </Airport>
 <Airport
  city="Sarben"
  elev="3035"
  id="04NE"
  lat="41.160"
  lon="-101.299"
  name="Mc Connell Field"
  state="NE"
  var="9E">
  <rwy
   id="N/S"
   len="2500"
   type="TURF"
   wid="100"/>
 </Airport>
 <Airport
  city="Elmer"
  elev="155"
  id="04NJ"
  lat="39.597"
  lon="-75.234"
  name="Emmanuel"
  state="NJ"
  var="11W">
  <rwy
   id="8/26"
   len="3500"
   type="TURF"
   wid="50"/>
 </Airport>
 <Airport
  city="Sandy Valley"
  elev="2620"
  id="04NV"
  lat="35.756"
  lon="-115.665"
  name="Kingston Ranch"
  state="CA"
  var="14E">
  <rwy
   id="2/20"
   len="3240"
   type="ASPH"
   wid="45"/>
 </Airport>
 <Airport
  city="Hudson"
  elev="250"
  id="04NY"
  lat="42.262"
  lon="-73.696"
  name="Klaverack"
  state="NY"
  var="14W">
  <rwy
   id="2/20"
   len="5200"
   type="TURF"
   wid="50"/>
 </Airport>
 <Airport
  city="Mitchell"
  elev="1500"
  id="04OR"
  lat="44.750"
  lon="-120.201"
  name="Collins Landing Strip"
  state="OR"
  var="19E"/>
 <Airport
  city="Chuckey"
  elev="1430"
  id="04TN"
  lat="36.183"
  lon="-82.679"
  name="Hensley Airpark"
  state="TN"
  var="5W">
  <rwy
   id="1/19"
   len="3000"
   type="ASPH"
   wid="40"/>
 </Airport>
 <Airport
  city="China Spring"
  elev="565"
  id="04TX"
  lat="31.732"
  lon="-97.369"
  name="Pocock"
  state="TX"
  var="7E">
  <rwy
   id="12/30"
   len="2000"
   type="TURF"
   wid="75"/>
 </Airport>
 <Airport
  city="Navajo Mountain Trdng Post"
  elev="6160"
  id="04UT"
  lat="37.008"
  lon="-110.795"
  name="Navajo Mountain"
  state="UT"
  var="13E">
  <rwy
   id="4/22"
   len="3700"
   type="DIRT"
   wid="50"/>
 </Airport>
 <Airport
  city="Saguache"
  elev="7850"
  id="04V"
  lat="38.099"
  lon="-106.174"
  name="Saguache Muni"
  state="CO"
  var="12E">
  <rwy
   id="11/29"
   len="7957"
   type="GRVL-DIRT-F"
   wid="55"/>
 </Airport>
 <Airport
  city="Cabot"
  elev="2156"
  id="04VT"
  lat="44.401"
  lon="-72.264"
  name="Lightning Bolt Field"
  state="VT"
  var="">
  <rwy
   id="6/24"
   len="1300"
   type="TURF"
   wid="40"/>
 </Airport>
 <Airport
  city="Hinckley"
  elev="1021"
  id="04W"
  lat="46.023"
  lon="-92.895"
  name="Field Of Dreams"
  state="MN"
  var="0E">
  <rwy
   id="6/24"
   len="2751"
   type="ASPH-F"
   wid="75"/>
 </Airport>
 <Airport
  city="Spokane"
  elev="2345"
  id="04WA"
  lat="47.582"
  lon="-117.437"
  name="Ox Meadows"
  state="WA"
  var="19E">
  <rwy
   id="N/S"
   len="1800"
   type="TURF"
   wid="60"/>
 </Airport>
 <Airport
  city="Bristol"
  elev="760"
  id="04WI"
  lat="42.523"
  lon="-88.017"
  name="Dutch Gap Airstrip"
  state="WI"
  var="1W">
  <rwy
   id="9/27"
   len="1800"
   type="TURF"
   wid="100"/>
 </Airport>
 <Airport
  city="Royal City"
  elev="1510"
  id="04WN"
  lat="46.958"
  lon="-119.639"
  name="Stillwater Creek"
  state="WA"
  var="">
  <rwy
   id="11/29"
   len="4100"
   type="ASPH"
   wid="60"/>
 </Airport>
 <Airport
  city="Hawley"
  elev="1209"
  id="04Y"
  lat="46.884"
  lon="-96.351"
  name="Hawley Muni"
  state="MN"
  var="5E">
  <rwy
   id="16/34"
   len="3398"
   type="ASPH-G"
   wid="75"/>
 </Airport>
 <Airport
  city="Palmer"
  elev="620"
  id="05AK"
  lat="61.669"
  lon="-149.187"
  name="Wasilla Creek Airpark"
  state="AK"
  var="24E">
  <rwy
   id="1/19"
   len="2000"
   type="TURF-GRVL"
   wid="75"/>
 </Airport>
 <Airport
  city="Kingston"
  elev="1900"
  id="05AR"
  lat="36.001"
  lon="-93.570"
  name="Ozark Skies Airpark"
  state="AR"
  var="">
  <rwy
   id="6/24"
   len="2000"
   type="TURF"
   wid="100"/>
 </Airport>
 <Airport
  city="Griffith"
  elev="634"
  id="05C"
  lat="41.520"
  lon="-87.400"
  name="Griffith-Merrillville"
  state="IN"
  var="3W">
  <rwy
   id="8/26"
   len="4899"
   type="ASPH-G"
   wid="75"/>
 </Airport>
 <Airport
  city="Pope Valley"
  elev="618"
  id="05CL"
  lat="38.611"
  lon="-122.391"
  name="Pope Valley"
  state="CA"
  var="16E">
  <rwy
   id="10/28"
   len="3700"
   type="ASPH-G"
   wid="60"/>
 </Airport>
 <Airport
  city="Mead"
  elev="4978"
  id="05CO"
  lat="40.215"
  lon="-104.984"
  name="Rancho de Aereo"
  state="CO"
  var="12E">
  <rwy
   id="18/36"
   len="2650"
   type="TURF"
   wid="60"/>
 </Airport>
 <Airport
  city="New Town"
  elev="1923"
  id="05D"
  lat="47.968"
  lon="-102.478"
  name="New Town Muni"
  state="ND"
  var="7E">
  <rwy
   id="12/30"
   len="3420"
   type="ASPH-G"
   wid="60"/>
 </Airport>
 <Airport
  city="Florala"
  elev="295"
  id="05FA"
  lat="30.919"
  lon="-86.218"
  name="Melanie&apos;s"
  state="FL"
  var="">
  <rwy
   id="8/26"
   len="2950"
   type="TURF"
   wid="100"/>
 </Airport>
 <Airport
  city="La Belle"
  elev="36"
  id="05FL"
  lat="26.520"
  lon="-81.410"
  name="Charlton Strip"
  state="FL"
  var="4W">
  <rwy
   id="9/27"
   len="2900"
   type="TURF"
   wid="60"/>
  <rwy
   id="15/33"
   len="1300"
   type="TURF"
   wid="50"/>
 </Airport>
 <Airport
  city="Richland"
  elev="625"
  id="05GA"
  lat="32.071"
  lon="-84.714"
  name="Raju"
  state="GA"
  var="3W">
  <rwy
   id="18/36"
   len="2200"
   type="ASPH"
   wid="60"/>
 </Airport>
 <Airport
  city="Nora Springs"
  elev="1155"
  id="05IA"
  lat="43.137"
  lon="-93.068"
  name="Spotts Field"
  state="IA"
  var="3E">
  <rwy
   id="9/27"
   len="2450"
   type="TURF-P"
   wid="65"/>
 </Airport>
 <Airport
  city="Grangeville"
  elev="2969"
  id="05ID"
  lat="45.914"
  lon="-114.836"
  name="Running Creek Ranch"
  state="ID"
  var="18E">
  <rwy
   id="3/21"
   len="2000"
   type="TURF-GRVL"
   wid="70"/>
 </Airport>
 <Airport
  city="Bonfield"
  elev="635"
  id="05IL"
  lat="41.160"
  lon="-88.017"
  name="Classic Landings"
  state="IL"
  var="1W">
  <rwy
   id="10/28"
   len="3200"
   type="TURF"
   wid="70"/>
 </Airport>
 <Airport
  city="Belleville"
  elev="860"
  id="05IN"
  lat="39.642"
  lon="-86.504"
  name="Cooper"
  state="IN"
  var="2W">
  <rwy
   id="8/26"
   len="2000"
   type="TURF"
   wid="100"/>
 </Airport>
 <Airport
  city="Port Alsworth"
  elev="288"
  id="05K"
  lat="60.199"
  lon="-154.325"
  name="Wilder/natwick Llc"
  state="AK"
  var="20E">
  <rwy
   id="6R/24L"
   len="4200"
   type="GRVL"
   wid="100"/>
 </Airport>
 <Airport
  city="Elk City"
  elev="945"
  id="05KS"
  lat="37.266"
  lon="-95.959"
  name="Darbro Field"
  state="KS"
  var="5E">
  <rwy
   id="17/35"
   len="2350"
   type="TURF"
   wid="50"/>
 </Airport>
 <Airport
  city="Frankfort"
  elev="880"
  id="05KT"
  lat="38.188"
  lon="-84.928"
  name="High Point Farm"
  state="KY"
  var="">
  <rwy
   id="9/27"
   len="600"
   type="TURF"
   wid="50"/>
 </Airport>
 <Airport
  city="Berea"
  elev="1070"
  id="05KY"
  lat="37.536"
  lon="-84.407"
  name="Cartersville"
  state="KY"
  var="">
  <rwy
   id="2/20"
   len="1270"
   type="TURF"
   wid="75"/>
 </Airport>
 <Airport
  city="Baskin"
  elev="77"
  id="05LA"
  lat="32.265"
  lon="-91.698"
  name="Greg&apos;s Flying Service"
  state="LA"
  var="3E">
  <rwy
   id="18/36"
   len="2200"
   type="TURF"
   wid="70"/>
 </Airport>
 <Airport
  city="Alexandria"
  elev="83"
  id="05LS"
  lat="31.252"
  lon="-92.476"
  name="Grass Roots"
  state="LA"
  var="">
  <rwy
   id="2/20"
   len="2300"
   type="TURF"
   wid="100"/>
 </Airport>
 <Airport
  city="Chestertown"
  elev="20"
  id="05MD"
  lat="39.244"
  lon="-76.199"
  name="Breezecroft"
  state="MD"
  var="11W">
  <rwy
   id="18/36"
   len="2700"
   type="TURF"
   wid="80"/>
 </Airport>
 <Airport
  city="Jonesboro"
  elev="70"
  id="05ME"
  lat="44.657"
  lon="-67.559"
  name="Drisko"
  state="ME"
  var="19W"/>
 <Airport
  city="Belgrade"
  elev="4364"
  id="05MT"
  lat="45.817"
  lon="-111.152"
  name="Jones Landing"
  state="MT"
  var="">
  <rwy
   id="17/35"
   len="1303"
   type="TURF"
   wid="50"/>
 </Airport>
 <Airport
  city="Winterville"
  elev="50"
  id="05N"
  lat="35.482"
  lon="-77.356"
  name="South Oaks Aerodrome"
  state="NC"
  var="">
  <rwy
   id="7/25"
   len="1850"
   type="TURF-G"
   wid="50"/>
 </Airport>
 <Airport
  city="Beaufort"
  elev="11"
  id="05NC"
  lat="34.759"
  lon="-76.645"
  name="Dead Cow Field"
  state="NC"
  var="">
  <rwy
   id="9/27"
   len="1400"
   type="TURF-G"
   wid="120"/>
 </Airport>
 <Airport
  city="Spalding"
  elev="2010"
  id="05NE"
  lat="41.722"
  lon="-98.309"
  name="Mc Kay"
  state="NE"
  var="7E">
  <rwy
   id="15/33"
   len="3210"
   type="TURF"
   wid="80"/>
 </Airport>
 <Airport
  city="Baker"
  elev="5180"
  id="05NV"
  lat="39.026"
  lon="-114.095"
  name="Baker Ranches"
  state="NV"
  var="">
  <rwy
   id="3/21"
   len="4750"
   type="DIRT-F"
   wid="75"/>
  <rwy
   id="14/32"
   len="4200"
   type="DIRT-F"
   wid="50"/>
 </Airport>
 <Airport
  city="Columbia Station"
  elev="830"
  id="05OI"
  lat="41.288"
  lon="-81.963"
  name="Dorlon Airpark"
  state="OH"
  var="7W">
  <rwy
   id="9/27"
   len="2000"
   type="TURF"
   wid="100"/>
 </Airport>
 <Airport
  city="Hydro"
  elev="1680"
  id="05OK"
  lat="35.471"
  lon="-98.542"
  name="Muncy"
  state="OK"
  var="">
  <rwy
   id="9/27"
   len="1250"
   type="TURF-F"
   wid="40"/>
 </Airport>
 <Airport
  city="Enterprise"
  elev="3500"
  id="05OR"
  lat="45.444"
  lon="-117.347"
  name="6 Ranch"
  state="OR"
  var="18E">
  <rwy
   id="11/29"
   len="2600"
   type="TURF"
   wid="50"/>
  <rwy
   id="H1"
   len="75"
   type="TURF"
   wid="75"/>
 </Airport>
 <Airport
  city="Burnt Cabins"
  elev="1210"
  id="05PS"
  lat="40.143"
  lon="-77.862"
  name="Mills Brothers"
  state="PA"
  var="">
  <rwy
   id="6/24"
   len="2219"
   type="TURF"
   wid="100"/>
 </Airport>
 <Airport
  city="Vernonia"
  elev="650"
  id="05S"
  lat="45.852"
  lon="-123.243"
  name="Vernonia Muni"
  state="OR"
  var="20E">
  <rwy
   id="9/27"
   len="2940"
   type="TURF-G"
   wid="45"/>
 </Airport>
 <Airport
  city="Sealy"
  elev="270"
  id="05TA"
  lat="29.809"
  lon="-96.264"
  name="Brandes Air Field"
  state="TX"
  var="6E">
  <rwy
   id="17/35"
   len="2200"
   type="TURF-G"
   wid="100"/>
 </Airport>
 <Airport
  city="Georgetown"
  elev="950"
  id="05TE"
  lat="30.722"
  lon="-97.791"
  name="Hilde-Griff Field"
  state="TX"
  var="7E">
  <rwy
   id="15/33"
   len="1500"
   type="TURF"
   wid="50"/>
 </Airport>
 <Airport
  city="Justin"
  elev="750"
  id="05TS"
  lat="33.129"
  lon="-97.359"
  name="Dew Drop"
  state="TX"
  var="7E">
  <rwy
   id="17/35"
   len="1700"
   type="TURF"
   wid="90"/>
 </Airport>
 <Airport
  city="Blum"
  elev="608"
  id="05TX"
  lat="32.129"
  lon="-97.404"
  name="Circle &apos;a&apos; Ranch"
  state="TX"
  var="7E">
  <rwy
   id="15/33"
   len="2075"
   type="TURF"
   wid="50"/>
 </Airport>
 <Airport
  city="Eureka"
  elev="5957"
  id="05U"
  lat="39.604"
  lon="-116.004"
  name="Eureka"
  state="NV"
  var="13E">
  <rwy
   id="18/36"
   len="7300"
   type="ASPH-E"
   wid="60"/>
 </Airport>
 <Airport
  city="Blanca"
  elev="7720"
  id="05V"
  lat="37.411"
  lon="-105.552"
  name="Blanca"
  state="CO"
  var="11E">
  <rwy
   id="3/21"
   len="6160"
   type="DIRT-G"
   wid="52"/>
 </Airport>
 <Airport
  city="Farmville"
  elev="445"
  id="05VA"
  lat="37.224"
  lon="-78.419"
  name="Providence"
  state="VA"
  var="8W">
  <rwy
   id="18/36"
   len="2000"
   type="TURF"
   wid="40"/>
 </Airport>
 <Airport
  city="Darien"
  elev="958"
  id="05WI"
  lat="42.651"
  lon="-88.746"
  name="Ames Private"
  state="WI"
  var="0W"/>
 <Airport
  city="Kettle Falls"
  elev="1570"
  id="05WN"
  lat="48.702"
  lon="-118.048"
  name="Flat Creek Field"
  state="WA"
  var="">
  <rwy
   id="7/25"
   len="1700"
   type="TURF-GRVL"
   wid="50"/>
 </Airport>
 <Airport
  city="Wilmot"
  elev="105"
  id="05XS"
  lat="33.079"
  lon="-91.562"
  name="Johnson Memorial"
  state="AR"
  var="3E">
  <rwy
   id="2/20"
   len="2600"
   type="TURF"
   wid="100"/>
 </Airport>
 <Airport
  city="Henning"
  elev="1455"
  id="05Y"
  lat="46.304"
  lon="-95.439"
  name="Henning Muni"
  state="MN"
  var="5E">
  <rwy
   id="17/35"
   len="3280"
   type="TURF-G"
   wid="200"/>
 </Airport>
 <Airport
  city="Tuskegee"
  elev="264"
  id="06A"
  lat="32.460"
  lon="-85.680"
  name="Moton Field Muni"
  state="AL"
  var="3W">
  <rwy
   id="13/31"
   len="5005"
   type="ASPH-F"
   wid="100"/>
 </Airport>
 <Airport
  city="Wasilla"
  elev="425"
  id="06AK"
  lat="61.628"
  lon="-149.575"
  name="June Lake Airpark"
  state="AK"
  var="">
  <rwy
   id="2/20"
   len="2000"
   type="GRVL"
   wid="40"/>
 </Airport>
 <Airport
  city="Higden"
  elev="499"
  id="06AR"
  lat="35.545"
  lon="-92.185"
  name="Bondair"
  state="AR"
  var="4E">
  <rwy
   id="16/34"
   len="2900"
   type="TURF-E"
   wid="125"/>
 </Airport>
 <Airport
  city="Chicago/schaumburg"
  elev="801"
  id="06C"
  lat="41.989"
  lon="-88.101"
  name="Schaumburg Rgnl"
  state="IL"
  var="1W">
  <rwy
   id="11/29"
   len="3800"
   type="CONC-G"
   wid="100"/>
 </Airport>
 <Airport
  city="Branson"
  elev="5100"
  id="06CO"
  lat="37.388"
  lon="-103.691"
  name="Jecan"
  state="CO"
  var="">
  <rwy
   id="17/35"
   len="4500"
   type="TURF"
   wid="75"/>
 </Airport>
 <Airport
  city="Rolla"
  elev="1822"
  id="06D"
  lat="48.884"
  lon="-99.621"
  name="Rolla Muni"
  state="ND"
  var="5E">
  <rwy
   id="7/25"
   len="2400"
   type="TURF-G"
   wid="95"/>
  <rwy
   id="14/32"
   len="4300"
   type="ASPH-G"
   wid="75"/>
 </Airport>
 <Airport
  city="Jupiter"
  elev="28"
  id="06FA"
  lat="26.908"
  lon="-80.328"
  name="William P Gwinn"
  state="FL"
  var="5W">
  <rwy
   id="9/27"
   len="7003"
   type="ASPH"
   wid="150"/>
 </Airport>
 <Airport
  city="Mascotte"
  elev="105"
  id="06FD"
  lat="28.642"
  lon="-81.885"
  name="Grass Roots Airpark"
  state="FL"
  var="">
  <rwy
   id="18/36"
   len="3400"
   type="TURF"
   wid="120"/>
 </Airport>
 <Airport
  city="Walford"
  elev="880"
  id="06IA"
  lat="41.841"
  lon="-91.834"
  name="Rich Field"
  state="IA"
  var="1E">
  <rwy
   id="9/27"
   len="1750"
   type="TURF"
   wid="100"/>
 </Airport>
 <Airport
  city="Kuna"
  elev="2750"
  id="06ID"
  lat="43.463"
  lon="-116.359"
  name="Larkin"
  state="ID"
  var="17E">
  <rwy
   id="9/27"
   len="2200"
   type="ASPH"
   wid="80"/>
 </Airport>
 <Airport
  city="Earlville"
  elev="708"
  id="06IL"
  lat="41.600"
  lon="-88.870"
  name="Humm"
  state="IL"
  var="1W">
  <rwy
   id="9/27"
   len="2580"
   type="TURF"
   wid="70"/>
 </Airport>
 <Airport
  city="Nauvoo"
  elev="695"
  id="06IS"
  lat="40.546"
  lon="-91.274"
  name="Sinele Strip"
  state="IL"
  var="3E">
  <rwy
   id="18/36"
   len="2600"
   type="TURF"
   wid="70"/>
 </Airport>
 <Airport
  city="Eupora"
  elev="450"
  id="06M"
  lat="33.535"
  lon="-89.313"
  name="Eupora"
  state="MS"
  var="2E">
  <rwy
   id="14/32"
   len="3000"
   type="ASPH-G"
   wid="60"/>
 </Airport>
 <Airport
  city="Waldron"
  elev="755"
  id="06MO"
  lat="39.231"
  lon="-94.804"
  name="Noah&apos;s Ark"
  state="MO"
  var="5E">
  <rwy
   id="15/33"
   len="3000"
   type="ASPH"
   wid="30"/>
 </Airport>
 <Airport
  city="Ethridge"
  elev="3541"
  id="06MT"
  lat="48.558"
  lon="-112.109"
  name="Torgerson"
  state="MT"
  var="18E"/>
 <Airport
  city="Middletown"
  elev="522"
  id="06N"
  lat="41.432"
  lon="-74.392"
  name="Randall"
  state="NY"
  var="13W">
  <rwy
   id="8/26"
   len="2810"
   type="ASPH-G"
   wid="60"/>
 </Airport>
 <Airport
  city="St. Pauls"
  elev="163"
  id="06NC"
  lat="34.828"
  lon="-78.930"
  name="Tailwinds"
  state="NC"
  var="7W">
  <rwy
   id="9/27"
   len="2600"
   type="TURF"
   wid="90"/>
 </Airport>
 <Airport
  city="Kensington"
  elev="160"
  id="06NH"
  lat="42.928"
  lon="-70.973"
  name="Cole Farm"
  state="NH"
  var="16W">
  <rwy
   id="17/35"
   len="1900"
   type="TURF"
   wid="150"/>
 </Airport>
 <Airport
  city="Baker"
  elev="5556"
  id="06NV"
  lat="39.098"
  lon="-114.150"
  name="Silver Creek"
  state="NV"
  var="">
  <rwy
   id="14/32"
   len="4000"
   type="DIRT-F"
   wid="50"/>
 </Airport>
 <Airport
  city="Auburn"
  elev="1100"
  id="06NY"
  lat="42.843"
  lon="-76.445"
  name="Murphy Field"
  state="NY"
  var="12W">
  <rwy
   id="15/33"
   len="2000"
   type="TURF"
   wid="75"/>
 </Airport>
 <Airport
  city="Williamsfield"
  elev="1160"
  id="06OH"
  lat="41.510"
  lon="-80.591"
  name="Hal Joy Airfield"
  state="OH"
  var="7W">
  <rwy
   id="9/27"
   len="2800"
   type="TURF"
   wid="100"/>
 </Airport>
 <Airport
  city="New Lebanon"
  elev="915"
  id="06OI"
  lat="39.735"
  lon="-84.382"
  name="Green Acres"
  state="OH"
  var="4W">
  <rwy
   id="9/27"
   len="2550"
   type="TURF-F"
   wid="45"/>
 </Airport>
 <Airport
  city="Ceres"
  elev="1440"
  id="06PA"
  lat="41.996"
  lon="-78.287"
  name="Freefall Oz"
  state="PA"
  var="10W">
  <rwy
   id="8/26"
   len="2965"
   type="TURF-G"
   wid="100"/>
 </Airport>
 <Airport
  city="Bellville"
  elev="292"
  id="06R"
  lat="29.941"
  lon="-96.245"
  name="Grawunder Field"
  state="TX"
  var="6E">
  <rwy
   id="15/33"
   len="2480"
   type="ASPH-P"
   wid="30"/>
 </Airport>
 <Airport
  city="Buckholts"
  elev="480"
  id="06TA"
  lat="30.909"
  lon="-97.117"
  name="Glaser Field"
  state="TX"
  var="7E">
  <rwy
   id="N/S"
   len="1900"
   type="GRAVEL"
   wid="15"/>
 </Airport>
 <Airport
  city="Cleveland"
  elev="132"
  id="06TE"
  lat="30.313"
  lon="-95.027"
  name="Cavok Airpark"
  state="TX"
  var="6E">
  <rwy
   id="9/27"
   len="3275"
   type="ASPH"
   wid="50"/>
 </Airport>
 <Airport
  city="Columbia"
  elev="640"
  id="06TN"
  lat="35.697"
  lon="-86.957"
  name="Hunter"
  state="TN"
  var="0W">
  <rwy
   id="5/23"
   len="2000"
   type="TURF-F"
   wid="50"/>
 </Airport>
 <Airport
  city="Paint Rock"
  elev="1810"
  id="06TS"
  lat="31.422"
  lon="-99.837"
  name="M Sansom Ranch"
  state="TX"
  var="">
  <rwy
   id="12/30"
   len="1600"
   type="TURF"
   wid="60"/>
 </Airport>
 <Airport
  city="Hockley"
  elev="215"
  id="06TX"
  lat="30.058"
  lon="-95.813"
  name="Diamond N Ranch"
  state="TX"
  var="5E">
  <rwy
   id="1/19"
   len="1680"
   type="TURF"
   wid="60"/>
 </Airport>
 <Airport
  city="Jackpot"
  elev="5224"
  id="06U"
  lat="41.976"
  lon="-114.658"
  name="Jackpot/hayden Field"
  state="NV"
  var="16E">
  <rwy
   id="15/33"
   len="6183"
   type="ASPH-F"
   wid="60"/>
 </Airport>
 <Airport
  city="Grottoes"
  elev="1160"
  id="06VA"
  lat="38.249"
  lon="-78.855"
  name="Mount Horeb Field"
  state="VA"
  var="9W">
  <rwy
   id="5/23"
   len="2000"
   type="TURF-G"
   wid="100"/>
 </Airport>
 <Airport
  city="Wausaukee"
  elev="720"
  id="06WI"
  lat="45.403"
  lon="-87.857"
  name="Lazy River"
  state="WI"
  var="">
  <rwy
   id="6/24"
   len="2200"
   type="TURF"
   wid="50"/>
  <rwy
   id="18/36"
   len="1500"
   type="TURF"
   wid="50"/>
 </Airport>
 <Airport
  city="Yelm"
  elev="394"
  id="06WN"
  lat="46.925"
  lon="-122.553"
  name="Western Airpark"
  state="WA"
  var="20E">
  <rwy
   id="9/27"
   len="2845"
   type="ASPH-G"
   wid="30"/>
 </Airport>
 <Airport
  city="Van Alstyne"
  elev="784"
  id="06XA"
  lat="33.446"
  lon="-96.571"
  name="J &amp; W Windy Hill"
  state="TX"
  var="">
  <rwy
   id="6/24"
   len="1500"
   type="TURF"
   wid="50"/>
 </Airport>
 <Airport
  city="Aubrey"
  elev="546"
  id="06XS"
  lat="33.325"
  lon="-97.044"
  name="Campbell Field"
  state="TX"
  var="6E">
  <rwy
   id="16/34"
   len="1750"
   type="TURF"
   wid="100"/>
 </Airport>
 <Airport
  city="Herman"
  elev="1068"
  id="06Y"
  lat="45.830"
  lon="-96.161"
  name="Herman Muni"
  state="MN"
  var="5E">
  <rwy
   id="14/32"
   len="2997"
   type="ASPH-F"
   wid="60"/>
 </Airport>
 <Airport
  city="Union Springs"
  elev="300"
  id="07A"
  lat="32.166"
  lon="-85.810"
  name="Franklin Field"
  state="AL"
  var="1W">
  <rwy
   id="14/32"
   len="3660"
   type="ASPH-F"
   wid="80"/>
 </Airport>
 <Airport
  city="Willow"
  elev="357"
  id="07AA"
  lat="61.696"
  lon="-149.955"
  name="Pan Lake Strip"
  state="AK"
  var="">
  <rwy
   id="18/36"
   len="2060"
   type="GRVL"
   wid="52"/>
 </Airport>
 <Airport
  city="Morrilton"
  elev="300"
  id="07AR"
  lat="35.195"
  lon="-92.800"
  name="Morrilton"
  state="AR"
  var="4E">
  <rwy
   id="11/29"
   len="3000"
   type="TURF"
   wid="60"/>
 </Airport>
 <Airport
  city="Richvale"
  elev="100"
  id="07CL"
  lat="39.498"
  lon="-121.771"
  name="Richvale"
  state="CA"
  var="17E">
  <rwy
   id="16/34"
   len="2220"
   type="ASPH"
   wid="50"/>
 </Airport>
 <Airport
  city="Kiowa"
  elev="6620"
  id="07CO"
  lat="39.264"
  lon="-104.427"
  name="Comanche Creek"
  state="CO"
  var="">
  <rwy
   id="2/20"
   len="3100"
   type="TURF"
   wid="75"/>
 </Airport>
 <Airport
  city="Gladewater"
  elev="296"
  id="07F"
  lat="32.529"
  lon="-94.972"
  name="Gladewater Muni"
  state="TX"
  var="3E">
  <rwy
   id="14/32"
   len="3299"
   type="ASPH-P"
   wid="75"/>
  <rwy
   id="17/35"
   len="2300"
   type="ASPH-G"
   wid="50"/>
 </Airport>
 <Airport
  city="Key Largo"
  elev="6"
  id="07FA"
  lat="25.324"
  lon="-80.276"
  name="Ocean Reef Club"
  state="FL"
  var="7W">
  <rwy
   id="5/23"
   len="4451"
   type="ASPH-G"
   wid="70"/>
 </Airport>
 <Airport
  city="Covington"
  elev="750"
  id="07GA"
  lat="33.675"
  lon="-83.763"
  name="Alcovy"
  state="GA"
  var="3W">
  <rwy
   id="9/27"
   len="1700"
   type="TURF"
   wid="80"/>
 </Airport>
 <Airport
  city="Oldtown"
  elev="2313"
  id="07ID"
  lat="48.149"
  lon="-116.998"
  name="Shepard Strip"
  state="ID"
  var="">
  <rwy
   id="18/36"
   len="1955"
   type="TURF"
   wid="110"/>
 </Airport>
 <Airport
  city="Boggstown"
  elev="750"
  id="07IN"
  lat="39.574"
  lon="-85.914"
  name="Gray"
  state="IN"
  var="2W">
  <rwy
   id="N/S"
   len="1860"
   type="TURF"
   wid="80"/>
 </Airport>
 <Airport
  city="Central City"
  elev="1716"
  id="07K"
  lat="41.112"
  lon="-98.051"
  name="Central City Muni - Larry Reineke Field"
  state="NE"
  var="5E">
  <rwy
   id="16/34"
   len="3700"
   type="CONC-E"
   wid="60"/>
 </Airport>
 <Airport
  city="Augusta"
  elev="1321"
  id="07KS"
  lat="37.734"
  lon="-96.937"
  name="Heape Field"
  state="KS"
  var="7E">
  <rwy
   id="18/36"
   len="2000"
   type="TURF"
   wid="45"/>
 </Airport>
 <Airport
  city="Louisville"
  elev="532"
  id="07KY"
  lat="38.081"
  lon="-85.693"
  name="Blue Lick"
  state="KY"
  var="2W">
  <rwy
   id="11/29"
   len="2000"
   type="TURF"
   wid="100"/>
 </Airport>
 <Airport
  city="Forest Hill"
  elev="150"
  id="07LA"
  lat="31.053"
  lon="-92.633"
  name="Richmond Plantation"
  state="LA"
  var="">
  <rwy
   id="11/29"
   len="2339"
   type="TURF-F"
   wid="125"/>
 </Airport>
 <Airport
  city="Westminster"
  elev="700"
  id="07MD"
  lat="39.612"
  lon="-77.052"
  name="Baugher&apos;s Orchard"
  state="MD"
  var="11W">
  <rwy
   id="1/19"
   len="1035"
   type="TURF-F"
   wid="60"/>
 </Airport>
 <Airport
  city="Lake"
  elev="1065"
  id="07MI"
  lat="43.864"
  lon="-85.024"
  name="Scott Airstrip"
  state="MI"
  var="4W">
  <rwy
   id="9/27"
   len="2450"
   type="TURF"
   wid="100"/>
 </Airport>
 <Airport
  city="Warrensburg"
  elev="880"
  id="07MO"
  lat="38.650"
  lon="-93.617"
  name="Lake Sexton"
  state="MO"
  var="4E">
  <rwy
   id="17/35"
   len="2700"
   type="TURF-GRVL-F"
   wid="40"/>
 </Airport>
 <Airport
  city="Glasgow"
  elev="2762"
  id="07MT"
  lat="48.421"
  lon="-106.528"
  name="Glasgow Industrial"
  state="MT"
  var="14E">
  <rwy
   id="10/28"
   len="13500"
   type="CONC-G"
   wid="300"/>
 </Airport>
 <Airport
  city="Kralltown"
  elev="470"
  id="07N"
  lat="40.017"
  lon="-77.004"
  name="Bermudian Valley Airpark"
  state="PA"
  var="10W">
  <rwy
   id="16/34"
   len="2200"
   type="TURF-G"
   wid="100"/>
 </Airport>
 <Airport
  city="Waxhaw"
  elev="625"
  id="07NC"
  lat="34.833"
  lon="-80.751"
  name="Hawks Meadow"
  state="NC"
  var="5W">
  <rwy
   id="8/26"
   len="2000"
   type="TURF"
   wid="50"/>
 </Airport>
 <Airport
  city="Baker"
  elev="5120"
  id="07NV"
  lat="39.102"
  lon="-114.053"
  name="Border Line Farm"
  state="NV"
  var="">
  <rwy
   id="17/35"
   len="4750"
   type="DIRT-F"
   wid="50"/>
 </Airport>
 <Airport
  city="Snyder"
  elev="1322"
  id="07OK"
  lat="34.633"
  lon="-99.034"
  name="Pleasant Valley"
  state="OK"
  var="8E">
  <rwy
   id="17/35"
   len="2400"
   type="TURF"
   wid="80"/>
 </Airport>
 <Airport
  city="Grassflat"
  elev="1690"
  id="07PN"
  lat="40.999"
  lon="-78.125"
  name="Folmar"
  state="PA"
  var="">
  <rwy
   id="9/27"
   len="2000"
   type="TURF"
   wid="100"/>
 </Airport>
 <Airport
  city="Bishop"
  elev="55"
  id="07R"
  lat="27.610"
  lon="-97.753"
  name="Bishop Muni"
  state="TX"
  var="7E">
  <rwy
   id="15/33"
   len="3200"
   type="ASPH-G"
   wid="50"/>
 </Airport>
 <Airport
  city="Beaumont"
  elev="1617"
  id="07S"
  lat="37.659"
  lon="-96.528"
  name="Beaumont Hotel"
  state="KS"
  var="6E">
  <rwy
   id="18/36"
   len="2400"
   type="TURF-G"
   wid="80"/>
 </Airport>
 <Airport
  city="Corpus Christi"
  elev="39"
  id="07TE"
  lat="27.721"
  lon="-97.513"
  name="Cuddihy Field"
  state="TX"
  var="7E">
  <rwy
   id="13/31"
   len="5000"
   type="ASPH"
   wid="100"/>
 </Airport>
 <Airport
  city="Vonore"
  elev="970"
  id="07TN"
  lat="35.569"
  lon="-84.241"
  name="Corntassel"
  state="TN"
  var="4W">
  <rwy
   id="7/25"
   len="1800"
   type="TURF"
   wid="75"/>
 </Airport>
 <Airport
  city="Georgetown"
  elev="690"
  id="07TS"
  lat="30.625"
  lon="-97.573"
  name="Cross Country Estates Marshall Field"
  state="TX"
  var="7E">
  <rwy
   id="17/35"
   len="2500"
   type="TURF"
   wid="75"/>
 </Airport>
 <Airport
  city="Howell"
  elev="4480"
  id="07UT"
  lat="41.717"
  lon="-112.447"
  name="E Northrop Grumman"
  state="UT"
  var="">
  <rwy
   id="16/34"
   len="4500"
   type="ASPH"
   wid="75"/>
 </Airport>
 <Airport
  city="La Veta"
  elev="7152"
  id="07V"
  lat="37.524"
  lon="-105.009"
  name="Cuchara Valley At La Veta"
  state="CO"
  var="11E">
  <rwy
   id="6/24"
   len="5798"
   type="ASPH-P"
   wid="60"/>
 </Airport>
 <Airport
  city="Clover"
  elev="350"
  id="07VA"
  lat="36.820"
  lon="-78.783"
  name="Alpha Hotel"
  state="VA"
  var="7W">
  <rwy
   id="16/34"
   len="1600"
   type="TURF"
   wid="50"/>
 </Airport>
 <Airport
  city="Jericho"
  elev="801"
  id="07VT"
  lat="44.447"
  lon="-72.915"
  name="Meadow"
  state="VT"
  var="">
  <rwy
   id="5/23"
   len="526"
   type="TURF"
   wid="20"/>
  <rwy
   id="14/32"
   len="595"
   type="TURF"
   wid="20"/>
 </Airport>
 <Airport
  city="Sheridan"
  elev="4074"
  id="07WY"
  lat="44.960"
  lon="-106.107"
  name="Stallions"
  state="WY"
  var="">
  <rwy
   id="13/31"
   len="2200"
   type="TURF"
   wid="50"/>
 </Airport>
 <Airport
  city="Hill City"
  elev="1289"
  id="07Y"
  lat="46.956"
  lon="-93.597"
  name="Hill City-Quadna Mountain"
  state="MN"
  var="3E">
  <rwy
   id="16/34"
   len="2902"
   type="TURF-F"
   wid="150"/>
 </Airport>
 <Airport
  city="Wetumpka"
  elev="197"
  id="08A"
  lat="32.527"
  lon="-86.331"
  name="Wetumpka Muni"
  state="AL"
  var="3W">
  <rwy
   id="9/27"
   len="3013"
   type="ASPH-G"
   wid="80"/>
  <rwy
   id="18/36"
   len="2876"
   type="TURF-G"
   wid="130"/>
 </Airport>
 <Airport
  city="Big Lake"
  elev="200"
  id="08AK"
  lat="61.570"
  lon="-149.724"
  name="Fisher"
  state="AK"
  var="">
  <rwy
   id="1/19"
   len="1200"
   type="GRVL"
   wid="80"/>
 </Airport>
 <Airport
  city="Ashdown"
  elev="329"
  id="08AR"
  lat="33.724"
  lon="-94.145"
  name="Garrison"
  state="AR"
  var="">
  <rwy
   id="18/36"
   len="2650"
   type="TURF"
   wid="60"/>
 </Airport>
 <Airport
  city="Bowdoinham"
  elev="61"
  id="08B"
  lat="44.000"
  lon="-69.887"
  name="Merrymeeting Field"
  state="ME"
  var="18W">
  <rwy
   id="14/32"
   len="1935"
   type="TURF-G"
   wid="100"/>
 </Airport>
 <Airport
  city="Jenison"
  elev="603"
  id="08C"
  lat="42.937"
  lon="-85.806"
  name="Riverview"
  state="MI"
  var="3W">
  <rwy
   id="14/32"
   len="3920"
   type="ASPH-F"
   wid="49"/>
 </Airport>
 <Airport
  city="Jamestown"
  elev="1025"
  id="08CL"
  lat="37.860"
  lon="-120.554"
  name="Kistler Ranch"
  state="CA"
  var="16E"/>
 <Airport
  city="Rush"
  elev="5600"
  id="08CO"
  lat="38.732"
  lon="-104.041"
  name="Terra Firma"
  state="CO"
  var="">
  <rwy
   id="9/27"
   len="2600"
   type="TURF"
   wid="75"/>
 </Airport>
 <Airport
  city="Stanley"
  elev="2245"
  id="08D"
  lat="48.301"
  lon="-102.406"
  name="Stanley Muni"
  state="ND"
  var="10E">
  <rwy
   id="9/27"
   len="3900"
   type="ASPH-G"
   wid="60"/>
 </Airport>
 <Airport
  city="Coalgate"
  elev="615"
  id="08F"
  lat="34.532"
  lon="-96.233"
  name="City Of Coalgate"
  state="OK"
  var="6E">
  <rwy
   id="17/35"
   len="2584"
   type="TURF-F"
   wid="80"/>
 </Airport>
 <Airport
  city="La Belle"
  elev="35"
  id="08FA"
  lat="26.580"
  lon="-81.484"
  name="Duda Airstrip"
  state="FL"
  var="2W">
  <rwy
   id="9/27"
   len="3165"
   type="TURF"
   wid="80"/>
 </Airport>
 <Airport
  city="Okeechobee"
  elev="65"
  id="08FD"
  lat="27.363"
  lon="-80.773"
  name="Sunniland Ranch"
  state="FL"
  var="3W">
  <rwy
   id="18/36"
   len="4138"
   type="TURF"
   wid="104"/>
 </Airport>
 <Airport
  city="Lake Placid"
  elev="103"
  id="08FL"
  lat="27.084"
  lon="-81.329"
  name="J H Hendrie Farms"
  state="FL"
  var="3W">
  <rwy
   id="3/21"
   len="2500"
   type="TURF"
   wid="100"/>
 </Airport>
 <Airport
  city="Darien"
  elev="12"
  id="08GA"
  lat="31.426"
  lon="-81.286"
  name="Sapelo Island"
  state="GA"
  var="4W">
  <rwy
   id="3/21"
   len="5000"
   type="TURF"
   wid="150"/>
 </Airport>
 <Airport
  city="Marsing"
  elev="2680"
  id="08ID"
  lat="43.569"
  lon="-116.777"
  name="Symms"
  state="ID"
  var="17E">
  <rwy
   id="NW/SE"
   len="2500"
   type="GRAVEL"
   wid="60"/>
 </Airport>
 <Airport
  city="Tampico"
  elev="643"
  id="08IL"
  lat="41.577"
  lon="-89.794"
  name="Harms Airstrip"
  state="IL"
  var="1E">
  <rwy
   id="9/27"
   len="2200"
   type="TURF"
   wid="75"/>
 </Airport>
 <Airport
  city="Fortville"
  elev="858"
  id="08IN"
  lat="39.917"
  lon="-85.847"
  name="Whybrew Fld"
  state="IN"
  var="">
  <rwy
   id="9/27"
   len="320"
   type="TURF"
   wid="125"/>
  <rwy
   id="18/36"
   len="840"
   type="TURF"
   wid="120"/>
 </Airport>
 <Airport
  city="Harvard"
  elev="1814"
  id="08K"
  lat="40.651"
  lon="-98.080"
  name="Harvard State"
  state="NE"
  var="5E">
  <rwy
   id="14/32"
   len="3873"
   type="TURF-F"
   wid="150"/>
  <rwy
   id="17/35"
   len="3722"
   type="ASPH-G"
   wid="60"/>
 </Airport>
 <Airport
  city="Bennington"
  elev="1250"
  id="08KS"
  lat="39.034"
  lon="-97.580"
  name="Alderson"
  state="KS"
  var="7E">
  <rwy
   id="17/35"
   len="2500"
   type="GRAVEL"
   wid="70"/>
 </Airport>
 <Airport
  city="Burnside"
  elev="820"
  id="08KY"
  lat="36.973"
  lon="-84.626"
  name="Boss"
  state="KY"
  var="3W">
  <rwy
   id="9/27"
   len="2500"
   type="TURF-G"
   wid="60"/>
 </Airport>
 <Airport
  city="Dwight"
  elev="665"
  id="08LL"
  lat="41.075"
  lon="-88.489"
  name="Sauer"
  state="IL"
  var="1W">
  <rwy
   id="18/36"
   len="2190"
   type="TURF-G"
   wid="100"/>
 </Airport>
 <Airport
  city="Grand Coteau"
  elev="51"
  id="08LS"
  lat="30.409"
  lon="-92.033"
  name="Aeleron"
  state="LA"
  var="">
  <rwy
   id="18/36"
   len="2000"
   type="TURF"
   wid="60"/>
 </Airport>
 <Airport
  city="Carthage"
  elev="457"
  id="08M"
  lat="32.762"
  lon="-89.530"
  name="Carthage-Leake County"
  state="MS"
  var="2E">
  <rwy
   id="17/35"
   len="3000"
   type="ASPH-E"
   wid="75"/>
 </Airport>
 <Airport
  city="Avon"
  elev="554"
  id="08ME"
  lat="44.814"
  lon="-70.345"
  name="Lindbergh"
  state="ME"
  var="18W">
  <rwy
   id="13/31"
   len="3200"
   type="TURF-F"
   wid="90"/>
 </Airport>
 <Airport
  city="Jasper"
  elev="955"
  id="08MO"
  lat="37.396"
  lon="-94.284"
  name="Twin Oaks"
  state="MO"
  var="4E">
  <rwy
   id="3/21"
   len="2640"
   type="TURF"
   wid="50"/>
  <rwy
   id="18/36"
   len="2140"
   type="TURF"
   wid="48"/>
 </Airport>
 <Airport
  city="Coldwater"
  elev="345"
  id="08MS"
  lat="34.662"
  lon="-89.868"
  name="Williams Field"
  state="MS"
  var="">
  <rwy
   id="7/25"
   len="3725"
   type="ASPH-TURF"
   wid="50"/>
 </Airport>
 <Airport
  city="Grassrange"
  elev="3450"
  id="08MT"
  lat="47.064"
  lon="-108.817"
  name="Matovich"
  state="MT"
  var="15E">
  <rwy
   id="7/25"
   len="2600"
   type="DIRT"
   wid="80"/>
 </Airport>
 <Airport
  city="Lebanon"
  elev="550"
  id="08N"
  lat="40.292"
  lon="-76.329"
  name="Keller Brothers"
  state="PA"
  var="12W">
  <rwy
   id="7/25"
   len="2692"
   type="TURF-G"
   wid="120"/>
 </Airport>
 <Airport
  city="Lewisville"
  elev="750"
  id="08NC"
  lat="36.068"
  lon="-80.466"
  name="Whiteheart Farm"
  state="NC"
  var="6W">
  <rwy
   id="18/36"
   len="3200"
   type="TURF"
   wid="50"/>
 </Airport>
 <Airport
  city="Golden Valley"
  elev="1990"
  id="08ND"
  lat="47.323"
  lon="-102.098"
  name="Brecht Strip"
  state="ND"
  var="11E">
  <rwy
   id="17/35"
   len="1300"
   type="TURF"
   wid="75"/>
 </Airport>
 <Airport
  city="Laurel"
  elev="1467"
  id="08NE"
  lat="42.432"
  lon="-97.079"
  name="Laurel Muni"
  state="NE"
  var="6E">
  <rwy
   id="11/29"
   len="3000"
   type="TURF-G"
   wid="100"/>
 </Airport>
 <Airport
  city="Zirconia"
  elev="2150"
  id="08NR"
  lat="35.218"
  lon="-82.426"
  name="Bell Mountain"
  state="NC"
  var="">
  <rwy
   id="2/20"
   len="1400"
   type="TURF-G"
   wid="40"/>
 </Airport>
 <Airport
  city="Middletown"
  elev="650"
  id="08NY"
  lat="41.368"
  lon="-74.506"
  name="Md1"
  state="NY"
  var="13W">
  <rwy
   id="1/19"
   len="550"
   type="TURF"
   wid="60"/>
  <rwy
   id="10/28"
   len="500"
   type="TURF"
   wid="40"/>
 </Airport>
 <Airport
  city="Hartford"
  elev="1230"
  id="08OH"
  lat="41.292"
  lon="-80.564"
  name="Kenley"
  state="OH"
  var="7W"/>
 <Airport
  city="Wilburton"
  elev="635"
  id="08OK"
  lat="34.931"
  lon="-95.258"
  name="Parks"
  state="OK"
  var="5E">
  <rwy
   id="8/26"
   len="1800"
   type="TURF"
   wid="50"/>
 </Airport>
 <Airport
  city="Hydro"
  elev="1518"
  id="08OL"
  lat="35.408"
  lon="-98.605"
  name="Broken B"
  state="OK"
  var="">
  <rwy
   id="18/36"
   len="1029"
   type="TURF-F"
   wid="40"/>
 </Airport>
 <Airport
  city="Silver Lake"
  elev="4990"
  id="08OR"
  lat="42.839"
  lon="-121.117"
  name="Saxon Sycan"
  state="OR"
  var="17E">
  <rwy
   id="18/36"
   len="2800"
   type="GRVL"
   wid="20"/>
 </Airport>
 <Airport
  city="West Kingston"
  elev="130"
  id="08R"
  lat="41.490"
  lon="-71.621"
  name="Richmond"
  state="RI"
  var="15W">
  <rwy
   id="11/29"
   len="2129"
   type="ASPH-P"
   wid="30"/>
 </Airport>
 <Airport
  city="Weatherford"
  elev="1040"
  id="08TX"
  lat="32.858"
  lon="-97.748"
  name="Cross Wind"
  state="TX"
  var="7E">
  <rwy
   id="9/27"
   len="2100"
   type="TURF"
   wid="30"/>
  <rwy
   id="18/36"
   len="1800"
   type="TURF"
   wid="100"/>
 </Airport>
 <Airport
  city="North Fork"
  elev="6397"
  id="08U"
  lat="41.516"
  lon="-115.860"
  name="Stevens-Crosby"
  state="NV"
  var="16E">
  <rwy
   id="1/19"
   len="3600"
   type="DIRT-F"
   wid="50"/>
 </Airport>
 <Airport
  city="Lacey"
  elev="210"
  id="08WA"
  lat="46.970"
  lon="-122.726"
  name="P-L Ranch"
  state="WA"
  var="">
  <rwy
   id="16/34"
   len="1255"
   type="TURF-F"
   wid="40"/>
 </Airport>
 <Airport
  city="Snook"
  elev="280"
  id="08XA"
  lat="30.479"
  lon="-96.504"
  name="Knolle Ranch"
  state="TX"
  var="">
  <rwy
   id="13/31"
   len="2200"
   type="TURF-E"
   wid="30"/>
 </Airport>
 <Airport
  city="Old Ocean"
  elev="45"
  id="08XS"
  lat="29.108"
  lon="-95.778"
  name="Peterson"
  state="TX"
  var="">
  <rwy
   id="3/21"
   len="2350"
   type="TURF"
   wid="100"/>
 </Airport>
 <Airport
  city="Butler"
  elev="133"
  id="09A"
  lat="32.119"
  lon="-88.127"
  name="Butler-Choctaw County"
  state="AL"
  var="3W">
  <rwy
   id="12/30"
   len="4082"
   type="ASPH-P"
   wid="80"/>
 </Airport>
 <Airport
  city="Big Lake"
  elev="228"
  id="09AK"
  lat="61.589"
  lon="-149.847"
  name="West Beaver"
  state="AK"
  var="">
  <rwy
   id="6/24"
   len="1300"
   type="TURF"
   wid="60"/>
 </Airport>
 <Airport
  city="St David"
  elev="4970"
  id="09AZ"
  lat="31.925"
  lon="-110.038"
  name="Stronghold"
  state="AZ"
  var="11E">
  <rwy
   id="6/24"
   len="2350"
   type="DIRT"
   wid="80"/>
 </Airport>
 <Airport
  city="Grass Valley"
  elev="2279"
  id="09CL"
  lat="39.112"
  lon="-121.055"
  name="Alta Sierra"
  state="CA"
  var="16E">
  <rwy
   id="1/19"
   len="2834"
   type="ASPH-F"
   wid="50"/>
 </Airport>
 <Airport
  city="Swink"
  elev="4180"
  id="09CO"
  lat="38.056"
  lon="-103.653"
  name="Cottonwood Field"
  state="CO"
  var="10E">
  <rwy
   id="9/27"
   len="3200"
   type="TURF"
   wid="50"/>
 </Airport>
 <Airport
  city="Lake Placid"
  elev="130"
  id="09FA"
  lat="27.246"
  lon="-81.413"
  name="Placid Lakes"
  state="FL"
  var="2W">
  <rwy
   id="18/36"
   len="4800"
   type="ASPH-E"
   wid="50"/>
 </Airport>
 <Airport
  city="Bushnell"
  elev="71"
  id="09FD"
  lat="28.671"
  lon="-82.087"
  name="Cheryl-Lane Landings"
  state="FL"
  var="3W">
  <rwy
   id="18/36"
   len="2649"
   type="TURF"
   wid="100"/>
 </Airport>
 <Airport
  city="Arcadia"
  elev="60"
  id="09FL"
  lat="27.056"
  lon="-81.971"
  name="Sunnybreeze"
  state="FL"
  var="">
  <rwy
   id="9/27"
   len="3000"
   type="TURF"
   wid="150"/>
 </Airport>
 <Airport
  city="Moultrie"
  elev="230"
  id="09GA"
  lat="31.111"
  lon="-83.684"
  name="Sunbelt Strip"
  state="GA"
  var="2W">
  <rwy
   id="9/27"
   len="2400"
   type="TURF"
   wid="70"/>
 </Airport>
 <Airport
  city="Brooklyn"
  elev="820"
  id="09IA"
  lat="41.746"
  lon="-92.409"
  name="Skydive Iowa"
  state="IA"
  var="3E">
  <rwy
   id="9/27"
   len="2700"
   type="ASPH-TURF"
   wid="80"/>
 </Airport>
 <Airport
  city="Moscow"
  elev="3835"
  id="09ID"
  lat="45.104"
  lon="-114.855"
  name="Taylor Ranch Landing Area"
  state="ID"
  var="17E">
  <rwy
   id="9/27"
   len="2300"
   type="TURF"
   wid="100"/>
 </Airport>
 <Airport
  city="Columbia City"
  elev="850"
  id="09IN"
  lat="41.121"
  lon="-85.425"
  name="Gordon"
  state="IN"
  var="3W">
  <rwy
   id="9/27"
   len="2200"
   type="TURF"
   wid="70"/>
  <rwy
   id="18/36"
   len="2200"
   type="TURF"
   wid="50"/>
 </Airport>
 <Airport
  city="Jekyll Island"
  elev="11"
  id="09J"
  lat="31.074"
  lon="-81.428"
  name="Jekyll Island"
  state="GA"
  var="5W">
  <rwy
   id="18/36"
   len="3715"
   type="ASPH-G"
   wid="75"/>
 </Airport>
 <Airport
  city="Sargent"
  elev="2313"
  id="09K"
  lat="41.635"
  lon="-99.342"
  name="Sargent Muni"
  state="NE"
  var="8E">
  <rwy
   id="16/34"
   len="3000"
   type="ASPH-E"
   wid="60"/>
 </Airport>
 <Airport
  city="Wellsville"
  elev="970"
  id="09KS"
  lat="38.707"
  lon="-95.138"
  name="Coffman"
  state="KS"
  var="5E">
  <rwy
   id="17/35"
   len="2500"
   type="TURF"
   wid="60"/>
 </Airport>
 <Airport
  city="Capron"
  elev="1000"
  id="09LL"
  lat="42.468"
  lon="-88.743"
  name="Pine Hill"
  state="IL"
  var="0W">
  <rwy
   id="17/35"
   len="2300"
   type="TURF"
   wid="80"/>
 </Airport>
 <Airport
  city="Charleston"
  elev="175"
  id="09M"
  lat="33.991"
  lon="-90.079"
  name="Charleston Muni"
  state="MS"
  var="2E">
  <rwy
   id="18/36"
   len="3000"
   type="ASPH-E"
   wid="50"/>
 </Airport>
 <Airport
  city="Berwick"
  elev="260"
  id="09ME"
  lat="43.341"
  lon="-70.855"
  name="Perrotti Skyranch Airfield"
  state="ME"
  var="">
  <rwy
   id="4/22"
   len="2000"
   type="TURF"
   wid="100"/>
 </Airport>
 <Airport
  city="Willard"
  elev="1210"
  id="09MO"
  lat="37.378"
  lon="-93.363"
  name="Hogue Farm"
  state="MO"
  var="4E"/>
 <Airport
  city="Staatsburg"
  elev="450"
  id="09N"
  lat="41.833"
  lon="-73.876"
  name="Airhaven"
  state="NY"
  var="13W">
  <rwy
   id="2/20"
   len="1863"
   type="TURF-G"
   wid="75"/>
 </Airport>
 <Airport
  city="Broadway"
  elev="310"
  id="09NC"
  lat="35.329"
  lon="-79.030"
  name="William Irving Lewis"
  state="NC"
  var="7W">
  <rwy
   id="16/34"
   len="2400"
   type="TURF"
   wid="80"/>
 </Airport>
 <Airport
  city="Bennington"
  elev="1272"
  id="09NE"
  lat="41.333"
  lon="-96.194"
  name="Summer Hill Farm"
  state="NE"
  var="6E">
  <rwy
   id="17/35"
   len="1230"
   type="TURF"
   wid="60"/>
  <rwy
   id="18/36"
   len="2500"
   type="TURF"
   wid="50"/>
 </Airport>
 <Airport
  city="Ramseur"
  elev="561"
  id="09NR"
  lat="35.650"
  lon="-79.650"
  name="Dakota Air Ranch"
  state="NC"
  var="">
  <rwy
   id="9/27"
   len="1800"
   type="TURF"
   wid="35"/>
  <rwy
   id="H1"
   len="24"
   type="CONC"
   wid="24"/>
  <rwy
   id="H2"
   len="24"
   type="CONC"
   wid="24"/>
 </Airport>
 <Airport
  city="Collinsville"
  elev="700"
  id="09OK"
  lat="36.355"
  lon="-95.864"
  name="Ragtime Aerodrome"
  state="OK"
  var="6E">
  <rwy
   id="1/19"
   len="2500"
   type="TURF"
   wid="50"/>
 </Airport>
 <Airport
  city="Port Matilda"
  elev="1780"
  id="09PA"
  lat="40.827"
  lon="-77.988"
  name="Eagle Field"
  state="PA"
  var="9W">
  <rwy
   id="6/24"
   len="2300"
   type="TURF"
   wid="100"/>
 </Airport>
 <Airport
  city="Woodville"
  elev="388"
  id="09R"
  lat="30.775"
  lon="-94.459"
  name="Tyler County"
  state="TX"
  var="5E">
  <rwy
   id="16/34"
   len="4000"
   type="ASPH-F"
   wid="60"/>
 </Airport>
 <Airport
  city="Metaline Falls"
  elev="2614"
  id="09S"
  lat="48.841"
  lon="-117.284"
  name="Sullivan Lake State"
  state="WA"
  var="20E">
  <rwy
   id="16/34"
   len="1765"
   type="TURF-G"
   wid="100"/>
 </Airport>
 <Airport
  city="Decatur"
  elev="931"
  id="09T"
  lat="33.281"
  lon="-97.497"
  name="Lazy G Bar Ranch"
  state="TX"
  var="7E">
  <rwy
   id="17/35"
   len="1600"
   type="TURF-DIRT-P"
   wid="40"/>
 </Airport>
 <Airport
  city="Ravenna"
  elev="512"
  id="09TA"
  lat="33.724"
  lon="-96.298"
  name="Xwind Farm"
  state="TX"
  var="">
  <rwy
   id="9/27"
   len="2600"
   type="TURF"
   wid="50"/>
 </Airport>
 <Airport
  city="Glen Rose"
  elev="787"
  id="09TE"
  lat="32.267"
  lon="-97.867"
  name="Running M Ranch"
  state="TX"
  var="7E">
  <rwy
   id="16/34"
   len="2815"
   type="TURF-F"
   wid="45"/>
 </Airport>
 <Airport
  city="Marathon"
  elev="3100"
  id="09TS"
  lat="29.482"
  lon="-103.165"
  name="Pitcock Rosillos Mountain Ranch"
  state="TX"
  var="9E">
  <rwy
   id="9/27"
   len="4200"
   type="ASPH"
   wid="42"/>
 </Airport>
 <Airport
  city="Sheffield"
  elev="2522"
  id="09TX"
  lat="30.739"
  lon="-102.024"
  name="Smokey Mtn Ranch"
  state="TX"
  var="9E">
  <rwy
   id="10/28"
   len="2340"
   type="TURF"
   wid="120"/>
  <rwy
   id="14/32"
   len="1220"
   type="TURF"
   wid="120"/>
 </Airport>
 <Airport
  city="Floyd"
  elev="2375"
  id="09VA"
  lat="36.977"
  lon="-80.494"
  name="Alum Ridge"
  state="VA"
  var="6W">
  <rwy
   id="5/23"
   len="1100"
   type="TURF"
   wid="50"/>
 </Airport>
 <Airport
  city="Holmen"
  elev="705"
  id="09WI"
  lat="44.004"
  lon="-91.308"
  name="Parkway Farm Strip"
  state="WI"
  var="2E">
  <rwy
   id="N/S"
   len="2500"
   type="TURF"
   wid="100"/>
 </Airport>
 <Airport
  city="Smithville"
  elev="1084"
  id="0A3"
  lat="35.985"
  lon="-85.809"
  name="Smithville Muni"
  state="TN"
  var="4W">
  <rwy
   id="6/24"
   len="4257"
   type="ASPH-F"
   wid="75"/>
 </Airport>
 <Airport
  city="Johnson City"
  elev="1550"
  id="0A4"
  lat="36.364"
  lon="-82.309"
  name="Johnson City"
  state="TN"
  var="4W">
  <rwy
   id="4/22"
   len="3000"
   type="ASPH-F"
   wid="50"/>
 </Airport>
 <Airport
  city="Hendersonville"
  elev="2084"
  id="0A7"
  lat="35.308"
  lon="-82.433"
  name="Hendersonville"
  state="NC"
  var="4W">
  <rwy
   id="15/33"
   len="3075"
   type="ASPH-F"
   wid="40"/>
 </Airport>
 <Airport
  city="Centreville"
  elev="250"
  id="0A8"
  lat="32.937"
  lon="-87.091"
  name="Bibb County"
  state="AL"
  var="2W">
  <rwy
   id="10/28"
   len="4206"
   type="ASPH-F"
   wid="80"/>
 </Airport>
 <Airport
  city="Elizabethton"
  elev="1592"
  id="0A9"
  lat="36.371"
  lon="-82.173"
  name="Elizabethton Muni"
  state="TN"
  var="6W">
  <rwy
   id="6/24"
   len="4529"
   type="ASPH-G"
   wid="70"/>
 </Airport>
 <Airport
  city="Yakataga"
  elev="16"
  id="0AA1"
  lat="60.081"
  lon="-142.495"
  name="Yakataga"
  state="AK"
  var="27E">
  <rwy
   id="8/26"
   len="4350"
   type="TURF-F"
   wid="75"/>
 </Airport>
 <Airport
  city="Farewell"
  elev="1535"
  id="0AA4"
  lat="62.509"
  lon="-153.891"
  name="Farewell"
  state="AK"
  var="24E">
  <rwy
   id="8/26"
   len="4600"
   type="GRVL-DIRT-P"
   wid="30"/>
 </Airport>
 <Airport
  city="Trapper Creek"
  elev="470"
  id="0AA5"
  lat="62.313"
  lon="-150.336"
  name="Rangeview Airstrip"
  state="AK"
  var="">
  <rwy
   id="14/32"
   len="1860"
   type="GRVL"
   wid="50"/>
 </Airport>
 <Airport
  city="Kenai"
  elev="65"
  id="0AA7"
  lat="60.492"
  lon="-151.235"
  name="Kalifonsky Meadows"
  state="AK"
  var="">
  <rwy
   id="18/36"
   len="2539"
   type="TURF"
   wid="100"/>
 </Airport>
 <Airport
  city="Pilot Station"
  elev="470"
  id="0AK"
  lat="61.961"
  lon="-162.942"
  name="Pilot Station"
  state="AK"
  var="18E">
  <rwy
   id="4/22"
   len="4000"
   type="GRVL-DIRT-P"
   wid="75"/>
 </Airport>
 <Airport
  city="North Pole"
  elev="800"
  id="0AK0"
  lat="64.393"
  lon="-146.862"
  name="Scotts"
  state="AK"
  var="27E">
  <rwy
   id="8/26"
   len="1050"
   type="TURF-G"
   wid="70"/>
 </Airport>
 <Airport
  city="Wasilla"
  elev="463"
  id="0AK1"
  lat="61.617"
  lon="-149.322"
  name="Anderson Lake"
  state="AK"
  var="25E">
  <rwy
   id="8/26"
   len="1800"
   type="GRAVEL"
   wid="40"/>
 </Airport>
 <Airport
  city="Willow"
  elev="81"
  id="0AK2"
  lat="61.725"
  lon="-150.683"
  name="Yentna Bend Strip"
  state="AK"
  var="">
  <rwy
   id="3/21"
   len="1000"
   type="TURF-DIRT"
   wid="150"/>
 </Airport>
 <Airport
  city="Montana Creek"
  elev="250"
  id="0AK3"
  lat="62.035"
  lon="-150.491"
  name="Parker Lake"
  state="AK"
  var="25E">
  <rwy
   id="14/32"
   len="1000"
   type="GRAVEL"
   wid="40"/>
 </Airport>
 <Airport
  city="May Creek"
  elev="1580"
  id="0AK5"
  lat="61.357"
  lon="-142.733"
  name="Young Creek"
  state="AK"
  var="">
  <rwy
   id="2/20"
   len="1550"
   type="TURF"
   wid="120"/>
 </Airport>
 <Airport
  city="Victory Bible Camp"
  elev="1800"
  id="0AK6"
  lat="61.803"
  lon="-147.944"
  name="Victory"
  state="AK"
  var="26E">
  <rwy
   id="11/29"
   len="1800"
   type="DIRT"
   wid="70"/>
 </Airport>
 <Airport
  city="Homer"
  elev="18"
  id="0AK7"
  lat="59.776"
  lon="-150.959"
  name="Bradley Lake Hydroelectric Project Airstrip"
  state="AK"
  var="">
  <rwy
   id="6/24"
   len="2400"
   type="GRVL"
   wid="75"/>
 </Airport>
 <Airport
  city="Mccarthy"
  elev="1320"
  id="0AK8"
  lat="61.427"
  lon="-142.979"
  name="Fireweed"
  state="AK"
  var="">
  <rwy
   id="2/20"
   len="2000"
   type="GRVL"
   wid="60"/>
 </Airport>
 <Airport
  city="Point Mackenzie"
  elev="110"
  id="0AK9"
  lat="61.333"
  lon="-150.059"
  name="Falcon Lake Strip"
  state="AK"
  var="">
  <rwy
   id="17/35"
   len="2000"
   type="GRVL"
   wid="30"/>
 </Airport>
 <Airport
  city="Foley"
  elev="97"
  id="0AL1"
  lat="30.444"
  lon="-87.657"
  name="Resort"
  state="AL"
  var="1E">
  <rwy
   id="17/35"
   len="2640"
   type="TURF"
   wid="70"/>
 </Airport>
 <Airport
  city="Flomaton"
  elev="247"
  id="0AL5"
  lat="31.032"
  lon="-87.253"
  name="Flomaton"
  state="AL"
  var="0E">
  <rwy
   id="15/33"
   len="2200"
   type="TURF"
   wid="100"/>
 </Airport>
 <Airport
  city="Florence"
  elev="590"
  id="0AL9"
  lat="34.850"
  lon="-87.633"
  name="Wilson Creek"
  state="AL"
  var="0W">
  <rwy
   id="9/27"
   len="2200"
   type="TURF"
   wid="50"/>
 </Airport>
 <Airport
  city="Crawfordsville"
  elev="217"
  id="0AR2"
  lat="35.267"
  lon="-90.350"
  name="Mission Field-Marotti Memorial"
  state="AR"
  var="2E">
  <rwy
   id="18/36"
   len="2800"
   type="TURF-GRVL"
   wid="60"/>
 </Airport>
 <Airport
  city="Point Cedar"
  elev="550"
  id="0AR3"
  lat="34.328"
  lon="-93.259"
  name="Bent Hickory Air Ranch"
  state="AR"
  var="">
  <rwy
   id="7/25"
   len="1565"
   type="TURF-F"
   wid="80"/>
 </Airport>
 <Airport
  city="Watson"
  elev="150"
  id="0AR7"
  lat="33.950"
  lon="-91.181"
  name="Yancopin"
  state="AR"
  var="3E">
  <rwy
   id="18/36"
   len="2200"
   type="TURF"
   wid="50"/>
 </Airport>
 <Airport
  city="Salome"
  elev="1930"
  id="0AZ2"
  lat="33.778"
  lon="-113.642"
  name="Western Sky Airpark"
  state="AZ"
  var="13E">
  <rwy
   id="17/35"
   len="3500"
   type="ASPH"
   wid="42"/>
 </Airport>
 <Airport
  city="Mobile"
  elev="1505"
  id="0AZ4"
  lat="32.982"
  lon="-112.287"
  name="Flying Bucket Ranch"
  state="AZ"
  var="13E">
  <rwy
   id="1/19"
   len="2900"
   type="TURF"
   wid="130"/>
 </Airport>
 <Airport
  city="Morristown"
  elev="2080"
  id="0AZ5"
  lat="33.866"
  lon="-112.603"
  name="Castle Well"
  state="AZ"
  var="13E">
  <rwy
   id="17/35"
   len="2600"
   type="ASPH-DIRT"
   wid="60"/>
 </Airport>
 <Airport
  city="Bethel"
  elev="674"
  id="0B1"
  lat="44.425"
  lon="-70.810"
  name="Bethel Rgnl"
  state="ME"
  var="17W">
  <rwy
   id="14/32"
   len="3818"
   type="ASPH-G"
   wid="75"/>
 </Airport>
 <Airport
  city="Brewer"
  elev="124"
  id="0B2"
  lat="44.764"
  lon="-68.768"
  name="Brewer"
  state="ME"
  var="19W">
  <rwy
   id="1/19"
   len="1730"
   type="TURF-G"
   wid="30"/>
 </Airport>
 <Airport
  city="Hartington"
  elev="1388"
  id="0B4"
  lat="42.603"
  lon="-97.254"
  name="Hartington Muni/ Bud Becker Fld"
  state="NE"
  var="6E">
  <rwy
   id="3/21"
   len="2150"
   type="TURF-G"
   wid="125"/>
  <rwy
   id="13/31"
   len="3950"
   type="CONC-G"
   wid="60"/>
 </Airport>
 <Airport
  city="Montague"
  elev="358"
  id="0B5"
  lat="42.592"
  lon="-72.523"
  name="Turners Falls"
  state="MA"
  var="15W">
  <rwy
   id="16/34"
   len="3200"
   type="ASPH-E"
   wid="75"/>
 </Airport>
 <Airport
  city="Warren"
  elev="1470"
  id="0B7"
  lat="44.117"
  lon="-72.827"
  name="Warren-Sugarbush"
  state="VT"
  var="16W">
  <rwy
   id="4/22"
   len="2575"
   type="ASPH-E"
   wid="30"/>
 </Airport>
 <Airport
  city="Fishers Island"
  elev="9"
  id="0B8"
  lat="41.251"
  lon="-72.032"
  name="Elizabeth Field"
  state="NY"
  var="14W">
  <rwy
   id="7/25"
   len="1792"
   type="ASPH-G"
   wid="75"/>
  <rwy
   id="12/30"
   len="2328"
   type="ASPH-G"
   wid="100"/>
 </Airport>
 <Airport
  city="Harvard"
  elev="913"
  id="0C0"
  lat="42.402"
  lon="-88.632"
  name="Dacy"
  state="IL"
  var="0W">
  <rwy
   id="9/27"
   len="3589"
   type="TURF-F"
   wid="105"/>
  <rwy
   id="14/32"
   len="2633"
   type="TURF-F"
   wid="100"/>
  <rwy
   id="18/36"
   len="2577"
   type="TURF-F"
   wid="120"/>
 </Airport>
 <Airport
  city="Dearborn"
  elev="1007"
  id="0C1"
  lat="39.488"
  lon="-94.781"
  name="Triple R"
  state="MO"
  var="5E">
  <rwy
   id="2/20"
   len="2375"
   type="ASPH-TRTD-F"
   wid="35"/>
 </Airport>
 <Airport
  city="Hinckley"
  elev="760"
  id="0C2"
  lat="41.771"
  lon="-88.703"
  name="Hinckley"
  state="IL"
  var="0W">
  <rwy
   id="9/27"
   len="2640"
   type="TURF-G"
   wid="100"/>
 </Airport>
 <Airport
  city="Pender"
  elev="1345"
  id="0C4"
  lat="42.113"
  lon="-96.728"
  name="Pender Muni"
  state="NE"
  var="4E">
  <rwy
   id="15/33"
   len="3600"
   type="CONC-G"
   wid="60"/>
 </Airport>
 <Airport
  city="Mecosta"
  elev="960"
  id="0C5"
  lat="43.577"
  lon="-85.284"
  name="Canadian Lakes"
  state="MI"
  var="4W">
  <rwy
   id="18/36"
   len="3800"
   type="TURF-G"
   wid="100"/>
 </Airport>
 <Airport
  city="Newark"
  elev="640"
  id="0C8"
  lat="41.519"
  lon="-88.606"
  name="Cushing Field Ltd"
  state="IL"
  var="0W">
  <rwy
   id="18/36"
   len="2831"
   type="TURF-G"
   wid="180"/>
 </Airport>
 <Airport
  city="Del Rey"
  elev="340"
  id="0CA0"
  lat="36.653"
  lon="-119.587"
  name="Pom Wonderful Airstrip"
  state="CA"
  var="">
  <rwy
   id="15/33"
   len="3000"
   type="ASPH-G"
   wid="60"/>
 </Airport>
 <Airport
  city="Santa Ynez"
  elev="570"
  id="0CA3"
  lat="34.587"
  lon="-120.013"
  name="Crawford"
  state="CA"
  var="14E">
  <rwy
   id="10/28"
   len="2100"
   type="ASPH"
   wid="20"/>
 </Airport>
 <Airport
  city="Santa Ynez"
  elev="660"
  id="0CA4"
  lat="34.622"
  lon="-120.065"
  name="Shepherd Ranch"
  state="CA"
  var="14E">
  <rwy
   id="6/24"
   len="3600"
   type="TREATED"
   wid="50"/>
 </Airport>
 <Airport
  city="Santa Ysabel"
  elev="3100"
  id="0CA5"
  lat="33.143"
  lon="-116.745"
  name="Hoffman Pvt"
  state="CA"
  var="13E">
  <rwy
   id="11/29"
   len="1400"
   type="ASPH"
   wid="30"/>
 </Airport>
 <Airport
  city="Ocotillo"
  elev="480"
  id="0CA6"
  lat="32.749"
  lon="-116.016"
  name="Emory Ranch"
  state="CA"
  var="13E">
  <rwy
   id="4/22"
   len="2400"
   type="ASPH"
   wid="40"/>
 </Airport>
 <Airport
  city="Shandon"
  elev="1140"
  id="0CA9"
  lat="35.595"
  lon="-120.339"
  name="Blech Ranch"
  state="CA"
  var="15E">
  <rwy
   id="16/34"
   len="3300"
   type="ASPH"
   wid="60"/>
 </Airport>
 <Airport
  city="Yoder"
  elev="5800"
  id="0CD2"
  lat="38.652"
  lon="-104.235"
  name="Foxx Valley"
  state="CO"
  var="">
  <rwy
   id="8/26"
   len="2500"
   type="TURF-P"
   wid="50"/>
  <rwy
   id="17/35"
   len="5000"
   type="TURF-F"
   wid="100"/>
 </Airport>
 <Airport
  city="Trinidad"
  elev="5686"
  id="0CD5"
  lat="37.490"
  lon="-104.144"
  name="Pinon Canyon"
  state="CO"
  var="">
  <rwy
   id="4/22"
   len="4500"
   type="GRVL"
   wid="70"/>
 </Airport>
 <Airport
  city="Lafayette"
  elev="5135"
  id="0CD7"
  lat="40.005"
  lon="-105.072"
  name="Fox Hole"
  state="CO"
  var="">
  <rwy
   id="6/24"
   len="956"
   type="TURF-G"
   wid="300"/>
 </Airport>
 <Airport
  city="Raymond"
  elev="500"
  id="0CL0"
  lat="37.118"
  lon="-119.913"
  name="Yosemite Hidden Lake Ranch"
  state="CA"
  var="15E">
  <rwy
   id="17/35"
   len="3720"
   type="DIRT"
   wid="75"/>
 </Airport>
 <Airport
  city="Adelanto"
  elev="3042"
  id="0CL1"
  lat="34.569"
  lon="-117.556"
  name="Krey Field"
  state="CA"
  var="14E">
  <rwy
   id="7/25"
   len="3360"
   type="ASPH-DIRT"
   wid="100"/>
  <rwy
   id="16/34"
   len="2040"
   type="DIRT"
   wid="100"/>
 </Airport>
 <Airport
  city="Chula Vista"
  elev="500"
  id="0CL3"
  lat="32.633"
  lon="-116.890"
  name="John Nichol&apos;s Field"
  state="CA"
  var="13E">
  <rwy
   id="9/27"
   len="2036"
   type="ASPH"
   wid="30"/>
 </Airport>
 <Airport
  city="Delhi"
  elev="140"
  id="0CN1"
  lat="37.452"
  lon="-120.765"
  name="Fiorini Ranch"
  state="CA"
  var="">
  <rwy
   id="16/34"
   len="2229"
   type="ASPH"
   wid="80"/>
 </Airport>
 <Airport
  city="Live Oak"
  elev="67"
  id="0CN2"
  lat="39.229"
  lon="-121.688"
  name="Sutter Butte Dusters"
  state="CA"
  var="">
  <rwy
   id="16/34"
   len="2493"
   type="ASPH"
   wid="31"/>
 </Airport>
 <Airport
  city="Louisville"
  elev="5170"
  id="0CO1"
  lat="40.033"
  lon="-105.124"
  name="Dave&apos;s"
  state="CO"
  var="12E">
  <rwy
   id="N/S"
   len="2500"
   type="TURF-GRVL"
   wid="50"/>
 </Airport>
 <Airport
  city="Crested Butte"
  elev="8980"
  id="0CO2"
  lat="38.852"
  lon="-106.933"
  name="Crested Butte Airpark"
  state="CO"
  var="12E">
  <rwy
   id="11/29"
   len="4000"
   type="ASPH"
   wid="40"/>
 </Airport>
 <Airport
  city="Kiowa"
  elev="6565"
  id="0CO5"
  lat="39.303"
  lon="-104.414"
  name="Wecker Farms"
  state="CO"
  var="">
  <rwy
   id="8/26"
   len="3000"
   type="TURF"
   wid="50"/>
 </Airport>
 <Airport
  city="Norwood"
  elev="8000"
  id="0CO6"
  lat="38.219"
  lon="-108.213"
  name="Flying M &amp; M Ranch"
  state="CO"
  var="12E">
  <rwy
   id="2/20"
   len="4500"
   type="TURF"
   wid="150"/>
  <rwy
   id="10/28"
   len="4000"
   type="TURF"
   wid="150"/>
 </Airport>
 <Airport
  city="Monte Vista"
  elev="7613"
  id="0CO9"
  lat="37.658"
  lon="-106.034"
  name="Van Treese"
  state="CO"
  var="12E"/>
 <Airport
  city="Ada"
  elev="949"
  id="0D7"
  lat="40.791"
  lon="-83.829"
  name="Ada"
  state="OH"
  var="5W">
  <rwy
   id="9/27"
   len="1955"
   type="TURF-F"
   wid="110"/>
 </Airport>
 <Airport
  city="Gettysburg"
  elev="2061"
  id="0D8"
  lat="44.987"
  lon="-99.953"
  name="Gettysburg Muni"
  state="SD"
  var="8E">
  <rwy
   id="4/22"
   len="2485"
   type="TURF-G"
   wid="155"/>
  <rwy
   id="13/31"
   len="4400"
   type="ASPH-G"
   wid="75"/>
 </Airport>
 <Airport
  city="Moriarty"
  elev="6204"
  id="0E0"
  lat="34.978"
  lon="-106.000"
  name="Moriarty Muni"
  state="NM"
  var="11E">
  <rwy
   id="8/26"
   len="7702"
   type="ASPH-E"
   wid="75"/>
  <rwy
   id="18/36"
   len="6201"
   type="ASPH-E"
   wid="75"/>
 </Airport>
 <Airport
  city="Crownpoint"
  elev="6696"
  id="0E8"
  lat="35.718"
  lon="-108.202"
  name="Crownpoint"
  state="NM"
  var="12E">
  <rwy
   id="18/36"
   len="5820"
   type="ASPH-G"
   wid="60"/>
 </Airport>
 <Airport
  city="Corydon"
  elev="1045"
  id="0E9"
  lat="40.756"
  lon="-93.240"
  name="Corydon"
  state="IA"
  var="4E">
  <rwy
   id="9/27"
   len="3270"
   type="TURF-F"
   wid="80"/>
 </Airport>
 <Airport
  city="Bowie"
  elev="1100"
  id="0F2"
  lat="33.602"
  lon="-97.776"
  name="Bowie Muni"
  state="TX"
  var="4E">
  <rwy
   id="17/35"
   len="3603"
   type="ASPH-G"
   wid="60"/>
 </Airport>
 <Airport
  city="Spirit Lake"
  elev="1434"
  id="0F3"
  lat="43.387"
  lon="-95.139"
  name="Spirit Lake Muni"
  state="IA"
  var="5E">
  <rwy
   id="16/34"
   len="3015"
   type="ASPH-F"
   wid="50"/>
 </Airport>
 <Airport
  city="Loup City"
  elev="2072"
  id="0F4"
  lat="41.286"
  lon="-98.990"
  name="Loup City Muni"
  state="NE"
  var="5E">
  <rwy
   id="4/22"
   len="2021"
   type="TURF-F"
   wid="100"/>
  <rwy
   id="16/34"
   len="3900"
   type="CONC-G"
   wid="60"/>
 </Airport>
 <Airport
  city="Eufaula"
  elev="670"
  id="0F7"
  lat="35.389"
  lon="-95.600"
  name="Fountainhead Lodge Airpark"
  state="OK"
  var="6E">
  <rwy
   id="18/36"
   len="3000"
   type="ASPH-P"
   wid="50"/>
 </Airport>
 <Airport
  city="Tishomingo"
  elev="647"
  id="0F9"
  lat="34.198"
  lon="-96.675"
  name="Tishomingo Airpark"
  state="OK"
  var="6E">
  <rwy
   id="17/35"
   len="3100"
   type="ASPH-G"
   wid="60"/>
 </Airport>
 <Airport
  city="Arcadia"
  elev="65"
  id="0FA1"
  lat="27.304"
  lon="-81.880"
  name="Ott&apos;s Landing"
  state="FL"
  var="2W">
  <rwy
   id="9/27"
   len="1800"
   type="TURF"
   wid="75"/>
 </Airport>
 <Airport
  city="Ormond Beach"
  elev="40"
  id="0FD0"
  lat="29.267"
  lon="-81.230"
  name="The 2a Ranch"
  state="FL"
  var="3W">
  <rwy
   id="9/27"
   len="4000"
   type="TURF"
   wid="75"/>
 </Airport>
 <Airport
  city="Freeport"
  elev="70"
  id="0FD3"
  lat="30.496"
  lon="-86.094"
  name="Dugger Field"
  state="FL"
  var="">
  <rwy
   id="8/26"
   len="2100"
   type="TURF"
   wid="50"/>
  <rwy
   id="13/31"
   len="4000"
   type="TURF"
   wid="40"/>
 </Airport>
 <Airport
  city="Defuniak Springs"
  elev="235"
  id="0FD5"
  lat="30.820"
  lon="-86.344"
  name="Breezy Knoll"
  state="FL"
  var="">
  <rwy
   id="9/27"
   len="2100"
   type="TURF"
   wid="100"/>
 </Airport>
 <Airport
  city="Defuniak Springs"
  elev="290"
  id="0FD9"
  lat="30.652"
  lon="-86.109"
  name="Joy Farms"
  state="FL"
  var="0E">
  <rwy
   id="4/22"
   len="1975"
   type="TURF"
   wid="60"/>
 </Airport>
 <Airport
  city="Clewiston"
  elev="30"
  id="0FL0"
  lat="26.731"
  lon="-81.164"
  name="Harper&apos;s Fly-In Ranch"
  state="FL"
  var="4W">
  <rwy
   id="14/32"
   len="2300"
   type="TURF"
   wid="100"/>
 </Airport>
 <Airport
  city="Branford"
  elev="110"
  id="0FL1"
  lat="29.983"
  lon="-82.836"
  name="Thompson Airfield"
  state="FL"
  var="3W">
  <rwy
   id="9/27"
   len="2575"
   type="TURF"
   wid="50"/>
 </Airport>
 <Airport
  city="Clewiston"
  elev="18"
  id="0FL9"
  lat="26.394"
  lon="-81.023"
  name="Mc Daniel Ranch Inc"
  state="FL"
  var="4W">
  <rwy
   id="9/27"
   len="3400"
   type="TURF"
   wid="116"/>
  <rwy
   id="17/35"
   len="2750"
   type="TURF"
   wid="100"/>
 </Airport>
 <Airport
  city="Lockport"
  elev="588"
  id="0G0"
  lat="43.103"
  lon="-78.703"
  name="North Buffalo Suburban"
  state="NY"
  var="11W">
  <rwy
   id="10/28"
   len="2830"
   type="ASPH-F"
   wid="50"/>
 </Airport>
 <Airport
  city="Tecumseh"
  elev="1306"
  id="0G3"
  lat="40.401"
  lon="-96.170"
  name="Tecumseh Muni"
  state="NE"
  var="3E">
  <rwy
   id="15/33"
   len="3501"
   type="CONC-E"
   wid="75"/>
 </Airport>
 <Airport
  city="Bryan"
  elev="729"
  id="0G6"
  lat="41.467"
  lon="-84.507"
  name="Williams County"
  state="OH"
  var="5W">
  <rwy
   id="7/25"
   len="4782"
   type="ASPH-G"
   wid="75"/>
 </Airport>
 <Airport
  city="Seneca Falls"
  elev="491"
  id="0G7"
  lat="42.884"
  lon="-76.781"
  name="Finger Lakes Rgnl"
  state="NY"
  var="12W">
  <rwy
   id="1/19"
   len="4592"
   type="ASPH-G"
   wid="75"/>
  <rwy
   id="11/29"
   len="1850"
   type="TURF-G"
   wid="60"/>
 </Airport>
 <Airport
  city="Hampton"
  elev="800"
  id="0GA0"
  lat="33.356"
  lon="-84.367"
  name="Halls Flying Ranch"
  state="GA"
  var="2W">
  <rwy
   id="1/19"
   len="2150"
   type="TURF"
   wid="50"/>
 </Airport>
 <Airport
  city="Hartwell"
  elev="693"
  id="0GA1"
  lat="34.478"
  lon="-82.897"
  name="Mustang Field"
  state="GA"
  var="3W">
  <rwy
   id="13/31"
   len="2000"
   type="TURF"
   wid="75"/>
 </Airport>
 <Airport
  city="Hartwell"
  elev="720"
  id="0GA2"
  lat="34.378"
  lon="-82.946"
  name="Airnautique, Inc"
  state="GA"
  var="3W">
  <rwy
   id="8/26"
   len="2600"
   type="TURF"
   wid="60"/>
 </Airport>
 <Airport
  city="Temple"
  elev="1287"
  id="0GA3"
  lat="33.770"
  lon="-85.061"
  name="Ayresouth"
  state="GA"
  var="1W">
  <rwy
   id="18/36"
   len="2000"
   type="TURF"
   wid="100"/>
 </Airport>
 <Airport
  city="Jersey"
  elev="780"
  id="0GA6"
  lat="33.733"
  lon="-83.819"
  name="Sunset Strip"
  state="GA"
  var="2W">
  <rwy
   id="15/33"
   len="2100"
   type="TURF"
   wid="150"/>
 </Airport>
 <Airport
  city="Valdosta"
  elev="200"
  id="0GA8"
  lat="30.887"
  lon="-83.416"
  name="Paso Fino Farm"
  state="GA"
  var="2W">
  <rwy
   id="3/21"
   len="3000"
   type="TURF"
   wid="100"/>
 </Airport>
 <Airport
  city="Roberta"
  elev="505"
  id="0GA9"
  lat="32.714"
  lon="-84.029"
  name="Gentle Landings Air Park"
  state="GA"
  var="2W">
  <rwy
   id="7/25"
   len="3500"
   type="TURF"
   wid="125"/>
 </Airport>
 <Airport
  city="Douglasville"
  elev="1085"
  id="0GE0"
  lat="33.782"
  lon="-84.801"
  name="Pinewood"
  state="GA"
  var="2W">
  <rwy
   id="2/20"
   len="2000"
   type="TURF"
   wid="30"/>
 </Airport>
 <Airport
  city="Irwinville"
  elev="327"
  id="0GE1"
  lat="31.665"
  lon="-83.447"
  name="Crystal Lake Airpark"
  state="GA"
  var="2W">
  <rwy
   id="4/22"
   len="3000"
   type="GRVL-TRTD-P"
   wid="40"/>
 </Airport>
 <Airport
  city="Trenton"
  elev="646"
  id="0GE3"
  lat="34.903"
  lon="-85.460"
  name="Lookout Mountain"
  state="GA"
  var="3W">
  <rwy
   id="2/20"
   len="2000"
   type="TURF"
   wid="50"/>
 </Airport>
 <Airport
  city="Sunnyside"
  elev="860"
  id="0GE4"
  lat="33.331"
  lon="-84.267"
  name="Pecan Patch Airstrip"
  state="GA"
  var="4W">
  <rwy
   id="9/27"
   len="1045"
   type="TURF"
   wid="80"/>
  <rwy
   id="18/36"
   len="1000"
   type="TURF"
   wid="80"/>
 </Airport>
 <Airport
  city="Cleveland"
  elev="1438"
  id="0GE5"
  lat="34.562"
  lon="-83.714"
  name="Mountain Airpark"
  state="GA"
  var="3W">
  <rwy
   id="N/S"
   len="2500"
   type="TURF"
   wid="130"/>
 </Airport>
 <Airport
  city="Appling"
  elev="450"
  id="0GE7"
  lat="33.520"
  lon="-82.372"
  name="Carpenter"
  state="GA"
  var="">
  <rwy
   id="1/19"
   len="3000"
   type="TURF"
   wid="90"/>
 </Airport>
 <Airport
  city="Rocky Ford"
  elev="230"
  id="0GE9"
  lat="32.694"
  lon="-81.799"
  name="Pegasus Ranch"
  state="GA"
  var="">
  <rwy
   id="3/21"
   len="2000"
   type="TURF"
   wid="100"/>
 </Airport>
 <Airport
  city="Wakeeney"
  elev="2438"
  id="0H1"
  lat="39.007"
  lon="-99.893"
  name="Trego Wakeeney"
  state="KS"
  var="5E">
  <rwy
   id="17/35"
   len="4008"
   type="CONC-E"
   wid="50"/>
 </Airport>
 <Airport
  city="Kahoka"
  elev="700"
  id="0H7"
  lat="40.422"
  lon="-91.707"
  name="Kahoka Muni"
  state="MO"
  var="3E">
  <rwy
   id="10/28"
   len="2680"
   type="TURF-E"
   wid="115"/>
 </Airport>
