<Airports>
 <Airport
  city="Adak Island"
  elev="18"
  id="ADK"
  lat="51.878"
  lon="-176.646"
  name="Adak"
  rwy="7790"
  state="AK"
  var="6.3"/>
 <Airport
  city="Akhiok"
  elev="44"
  id="AKK"
  lat="56.939"
  lon="-154.183"
  name="Akhiok"
  rwy="3120"
  state="AK"
  var="18.0"/>
 <Airport
  city="Akiachak"
  elev="25"
  id="Z13"
  lat="60.905"
  lon="-161.422"
  name="Akiachak"
  rwy="1649"
  state="AK"
  var="19.0"/>
 <Airport
  city="Akiak"
  elev="30"
  id="AKI"
  lat="60.903"
  lon="-161.231"
  name="Akiak"
  rwy="3196"
  state="AK"
  var="15.1"/>
 <Airport
  city="Alakanuk"
  elev="10"
  id="AUK"
  lat="62.680"
  lon="-164.660"
  name="Alakanuk"
  rwy="2200"
  state="AK"
  var="17.0"/>
 <Airport
  city="Aleknagik"
  elev="66"
  id="5A8"
  lat="59.283"
  lon="-158.618"
  name="Aleknagik/New"
  rwy="2040"
  state="AK"
  var="20.0"/>
 <Airport
  city="Aleknagik"
  elev="150"
  id="4AK7"
  lat="59.281"
  lon="-158.597"
  name="Aleknagik Mission Lodge"
  rwy="1200"
  state="AK"
  var="20.0"/>
 <Airport
  city="Aleknagik"
  elev="2180"
  id="Z25"
  lat="46.713"
  lon="-120.326"
  name="Selah Creek Landing Zone"
  rwy="4025"
  state="AK"
  var="16.6"/>
 <Airport
  city="Allakaket"
  elev="436"
  id="6A8"
  lat="66.552"
  lon="-152.622"
  name="Allakaket"
  rwy="4000"
  state="AK"
  var="21.0"/>
 <Airport
  city="Ambler"
  elev="334"
  id="AFM"
  lat="67.106"
  lon="-157.857"
  name="Ambler"
  rwy="3000"
  state="AK"
  var="18.3"/>
 <Airport
  city="American Creek"
  elev="500"
  id="AK80"
  lat="65.102"
  lon="-151.177"
  name="American Creek"
  rwy="1800"
  state="AK"
  var="26.0"/>
 <Airport
  city="Anaktuvuk Pass"
  elev="2103"
  id="AKP"
  lat="68.134"
  lon="-151.743"
  name="Anaktuvuk Pass"
  rwy="4800"
  state="AK"
  var="22.0"/>
 <Airport
  city="Anchor Point"
  elev="120"
  id="AK00"
  lat="59.797"
  lon="-151.863"
  name="Anchor River Airpark"
  rwy="2500"
  state="AK"
  var="22.0"/>
 <Airport
  city="Anchor Point"
  elev="450"
  id="00AK"
  lat="59.856"
  lon="-151.696"
  name="Lowell Field"
  rwy="2500"
  state="AK"
  var=""/>
 <Airport
  city="Anchorage"
  elev="55"
  id="6AK5"
  lat="61.168"
  lon="-150.161"
  name="Fire Island"
  rwy="2800"
  state="AK"
  var="25.0"/>
 <Airport
  city="Anchorage"
  elev="152"
  id="ANC"
  lat="61.174"
  lon="-149.996"
  name="Ted Stevens Anchorage Intl"
  rwy="11384"
  state="AK"
  var="20.2"/>
 <Airport
  city="Anchorage"
  elev="73"
  id="Z41"
  lat="61.187"
  lon="-149.965"
  name="Lake Hood Strip"
  rwy="2200"
  state="AK"
  var="25.0"/>
 <Airport
  city="Anchorage"
  elev="47"
  id="AK12"
  lat="61.107"
  lon="-149.864"
  name="Flying Crown"
  rwy="1078"
  state="AK"
  var="25.0"/>
 <Airport
  city="Anchorage"
  elev="137"
  id="MRI"
  lat="61.214"
  lon="-149.844"
  name="Merrill Fld"
  rwy="4000"
  state="AK"
  var="20.2"/>
 <Airport
  city="Anchorage"
  elev="340"
  id="9AK5"
  lat="61.116"
  lon="-149.819"
  name="Sky Harbor"
  rwy="1800"
  state="AK"
  var="25.0"/>
 <Airport
  city="Anchorage"
  elev="212"
  id="EDF"
  lat="61.251"
  lon="-149.807"
  name="Elmendorf Afb"
  rwy="10000"
  state="AK"
  var="20.1"/>
 <Airport
  city="Anchorage"
  elev="85"
  id="AA06"
  lat="61.290"
  lon="-149.806"
  name="Six-Mile Lake"
  rwy="4000"
  state="AK"
  var=""/>
 <Airport
  city="Anchorage"
  elev="286"
  id="CSR"
  lat="61.159"
  lon="-149.781"
  name="Campbell Airstrip"
  rwy="5000"
  state="AK"
  var="25.0"/>
 <Airport
  city="Anchorage"
  elev="40"
  id="AA05"
  lat="61.508"
  lon="-149.078"
  name="Shelby Strip"
  rwy="1104"
  state="AK"
  var=""/>
 <Airport
  city="Anchorage"
  elev="900"
  id="A13"
  lat="61.341"
  lon="-148.999"
  name="Bold"
  rwy="1000"
  state="AK"
  var="25.0"/>
 <Airport
  city="Aniak"
  elev="88"
  id="ANI"
  lat="61.582"
  lon="-159.543"
  name="Aniak"
  rwy="6000"
  state="AK"
  var="16.1"/>
 <Airport
  city="Annette"
  elev="119"
  id="ANN"
  lat="55.042"
  lon="-131.572"
  name="Annette Island"
  rwy="7493"
  state="AK"
  var="21.3"/>
 <Airport
  city="Anvik"
  elev="309"
  id="ANV"
  lat="62.647"
  lon="-160.191"
  name="Anvik"
  rwy="2960"
  state="AK"
  var="16.1"/>
 <Airport
  city="Arctic Village"
  elev="2092"
  id="ARC"
  lat="68.115"
  lon="-145.579"
  name="Arctic Village"
  rwy="4500"
  state="AK"
  var="24.5"/>
 <Airport
  city="Atka"
  elev="56"
  id="AKA"
  lat="52.220"
  lon="-174.206"
  name="Atka"
  rwy="3287"
  state="AK"
  var="7.4"/>
 <Airport
  city="Atmautluak"
  elev="17"
  id="4A2"
  lat="60.867"
  lon="-162.273"
  name="Atmautluak"
  rwy="3000"
  state="AK"
  var="18.0"/>
 <Airport
  city="Atqasuk"
  elev="96"
  id="ATK"
  lat="70.467"
  lon="-157.436"
  name="Atqasuk Edward Burnell Sr Mem"
  rwy="4370"
  state="AK"
  var="19.5"/>
 <Airport
  city="Attu"
  elev="40"
  id="ATU"
  lat="52.828"
  lon="173.180"
  name="Casco Cove Cgs"
  rwy="5800"
  state="AK"
  var="1.1"/>
 <Airport
  city="Barrow"
  elev="44"
  id="BRW"
  lat="71.285"
  lon="-156.766"
  name="Wiley Post Will Rogers Mem"
  rwy="6500"
  state="AK"
  var="20.3"/>
 <Airport
  city="Barter Island Lrrs"
  elev="2"
  id="BTI"
  lat="70.134"
  lon="-143.582"
  name="Barter Island Lrrs"
  rwy="4820"
  state="AK"
  var="26.3"/>
 <Airport
  city="Basin Creek"
  elev="140"
  id="Z47"
  lat="64.680"
  lon="-165.300"
  name="Basin Creek"
  rwy="2000"
  state="AK"
  var="17.0"/>
 <Airport
  city="Bear Creek"
  elev="575"
  id="AK02"
  lat="65.540"
  lon="-161.062"
  name="Bear Creek 1"
  rwy="1400"
  state="AK"
  var="20.0"/>
 <Airport
  city="Bear Creek"
  elev="740"
  id="Z48"
  lat="63.572"
  lon="-156.144"
  name="Bear Creek 3"
  rwy="1675"
  state="AK"
  var="23.0"/>
 <Airport
  city="Bear Lake"
  elev="130"
  id="Z52"
  lat="56.037"
  lon="-160.266"
  name="Johnsons Landing"
  rwy="1325"
  state="AK"
  var="18.0"/>
 <Airport
  city="Beaver"
  elev="359"
  id="WBQ"
  lat="66.362"
  lon="-147.407"
  name="Beaver"
  rwy="3954"
  state="AK"
  var="24.0"/>
 <Airport
  city="Beluga"
  elev="130"
  id="BLG"
  lat="61.172"
  lon="-151.044"
  name="Beluga"
  rwy="5000"
  state="AK"
  var="24.0"/>
 <Airport
  city="Bethel"
  elev="121"
  id="BET"
  lat="60.780"
  lon="-161.838"
  name="Bethel"
  rwy="6400"
  state="AK"
  var="14.5"/>
 <Airport
  city="Bettles"
  elev="644"
  id="BTT"
  lat="66.914"
  lon="-151.529"
  name="Bettles"
  rwy="5190"
  state="AK"
  var="21.4"/>
 <Airport
  city="Big Lake"
  elev="189"
  id="63AK"
  lat="61.584"
  lon="-149.938"
  name="Kucera Residence"
  rwy="1200"
  state="AK"
  var="22.0"/>
 <Airport
  city="Big Lake"
  elev="150"
  id="AK86"
  lat="61.574"
  lon="-149.911"
  name="Kramer"
  rwy="850"
  state="AK"
  var=""/>
 <Airport
  city="Big Lake"
  elev="150"
  id="20AK"
  lat="61.504"
  lon="-149.896"
  name="Owen Field"
  rwy="1300"
  state="AK"
  var=""/>
 <Airport
  city="Big Lake"
  elev="228"
  id="09AK"
  lat="61.589"
  lon="-149.847"
  name="West Beaver"
  rwy="1300"
  state="AK"
  var=""/>
 <Airport
  city="Big Lake"
  elev="250"
  id="9AK7"
  lat="61.590"
  lon="-149.817"
  name="Cubdivision"
  rwy="1200"
  state="AK"
  var="22.0"/>
 <Airport
  city="Big Lake"
  elev="158"
  id="BGQ"
  lat="61.536"
  lon="-149.814"
  name="Big Lake"
  rwy="2435"
  state="AK"
  var="20.3"/>
 <Airport
  city="Big Lake"
  elev="185"
  id="AK95"
  lat="61.570"
  lon="-149.779"
  name="Twin Lake"
  rwy="1000"
  state="AK"
  var="24.0"/>
 <Airport
  city="Big Lake"
  elev="200"
  id="08AK"
  lat="61.570"
  lon="-149.724"
  name="Fisher"
  rwy="1200"
  state="AK"
  var=""/>
 <Airport
  city="Big Mountain"
  elev="663"
  id="37AK"
  lat="59.361"
  lon="-155.259"
  name="Big Mountain Afs"
  rwy="4200"
  state="AK"
  var="17.4"/>
 <Airport
  city="Birch Creek"
  elev="450"
  id="Z91"
  lat="66.274"
  lon="-145.824"
  name="Birch Creek"
  rwy="4000"
  state="AK"
  var="30.0"/>
 <Airport
  city="Birchwood"
  elev="96"
  id="BCV"
  lat="61.416"
  lon="-149.507"
  name="Birchwood"
  rwy="3931"
  state="AK"
  var="20.3"/>
 <Airport
  city="Black Rapids"
  elev="2125"
  id="5BK"
  lat="63.535"
  lon="-145.861"
  name="Black Rapids"
  rwy="2250"
  state="AK"
  var="28.0"/>
 <Airport
  city="Boswell Bay"
  elev="230"
  id="AK97"
  lat="60.423"
  lon="-146.146"
  name="Boswell Bay"
  rwy="2612"
  state="AK"
  var="26.0"/>
 <Airport
  city="Boundary"
  elev="2940"
  id="BYA"
  lat="64.078"
  lon="-141.113"
  name="Boundary"
  rwy="2500"
  state="AK"
  var="31.0"/>
 <Airport
  city="Brevig Mission"
  elev="38"
  id="KTS"
  lat="65.331"
  lon="-166.466"
  name="Brevig Mission"
  rwy="2990"
  state="AK"
  var="17.0"/>
 <Airport
  city="Buck Creek"
  elev="560"
  id="AK98"
  lat="65.639"
  lon="-167.486"
  name="Buck Creek"
  rwy="1220"
  state="AK"
  var="16.0"/>
 <Airport
  city="Buckland"
  elev="31"
  id="BVK"
  lat="65.982"
  lon="-161.149"
  name="Buckland"
  rwy="3200"
  state="AK"
  var="16.2"/>
 <Airport
  city="Candle"
  elev="15"
  id="AK75"
  lat="65.908"
  lon="-161.926"
  name="Candle 2"
  rwy="3880"
  state="AK"
  var="20.0"/>
 <Airport
  city="Cantwell"
  elev="2190"
  id="TTW"
  lat="63.391"
  lon="-148.956"
  name="Cantwell"
  rwy="2080"
  state="AK"
  var="27.0"/>
 <Airport
  city="Cantwell"
  elev="2250"
  id="15AK"
  lat="63.371"
  lon="-148.850"
  name="Golden North Airfield"
  rwy="2095"
  state="AK"
  var="27.0"/>
 <Airport
  city="Cape Lisburne"
  elev="12"
  id="LUR"
  lat="68.875"
  lon="-166.110"
  name="Cape Lisburne Lrrs"
  rwy="4800"
  state="AK"
  var="14.1"/>
 <Airport
  city="Cape Newenham"
  elev="541"
  id="EHM"
  lat="58.646"
  lon="-162.063"
  name="Cape Newenham Lrrs"
  rwy="3950"
  state="AK"
  var="14.2"/>
 <Airport
  city="Cape Romanzof"
  elev="457"
  id="CZF"
  lat="61.780"
  lon="-166.039"
  name="Cape Romanzof Lrrs"
  rwy="3990"
  state="AK"
  var="12.5"/>
 <Airport
  city="Cape Sarichef"
  elev="291"
  id="26AK"
  lat="54.582"
  lon="-164.914"
  name="Cape Sarichef"
  rwy="3500"
  state="AK"
  var="16.0"/>
 <Airport
  city="Central"
  elev="937"
  id="CEM"
  lat="65.574"
  lon="-144.781"
  name="Central"
  rwy="2782"
  state="AK"
  var="30.0"/>
 <Airport
  city="Chalkyitsik"
  elev="544"
  id="CIK"
  lat="66.645"
  lon="-143.740"
  name="Chalkyitsik"
  rwy="4000"
  state="AK"
  var="24.5"/>
 <Airport
  city="Chandalar Camp"
  elev="3222"
  id="5CD"
  lat="68.065"
  lon="-149.580"
  name="Chandalar Shelf"
  rwy="2529"
  state="AK"
  var="28.0"/>
 <Airport
  city="Chandalar Lake"
  elev="1920"
  id="WCR"
  lat="67.505"
  lon="-148.483"
  name="Chandalar Lake"
  rwy="3000"
  state="AK"
  var="22.0"/>
 <Airport
  city="Chefornak"
  elev="40"
  id="CFK"
  lat="60.149"
  lon="-164.286"
  name="Chefornak"
  rwy="2500"
  state="AK"
  var="17.0"/>
 <Airport
  city="Chena Hot Springs"
  elev="1195"
  id="AK13"
  lat="65.052"
  lon="-146.047"
  name="Chena Hot Springs"
  rwy="3475"
  state="AK"
  var="29.0"/>
 <Airport
  city="Chenega"
  elev="72"
  id="C05"
  lat="60.077"
  lon="-147.992"
  name="Chenega Bay"
  rwy="3000"
  state="AK"
  var="25.0"/>
 <Airport
  city="Chevak"
  elev="75"
  id="VAK"
  lat="61.534"
  lon="-165.584"
  name="Chevak"
  rwy="2680"
  state="AK"
  var="13.0"/>
 <Airport
  city="Chicken"
  elev="1640"
  id="CKX"
  lat="64.071"
  lon="-141.952"
  name="Chicken"
  rwy="2500"
  state="AK"
  var="30.0"/>
 <Airport
  city="Chignik"
  elev="18"
  id="AJC"
  lat="56.311"
  lon="-158.373"
  name="Chignik"
  rwy="2600"
  state="AK"
  var="16.0"/>
 <Airport
  city="Chignik Lagoon"
  elev="25"
  id="KCL"
  lat="56.311"
  lon="-158.534"
  name="Chignik Lagoon"
  rwy="1810"
  state="AK"
  var="19.0"/>
 <Airport
  city="Chignik Lake"
  elev="50"
  id="A79"
  lat="56.255"
  lon="-158.775"
  name="Chignik Lake"
  rwy="2800"
  state="AK"
  var="19.0"/>
 <Airport
  city="Chisana"
  elev="3318"
  id="CZN"
  lat="62.071"
  lon="-142.048"
  name="Chisana"
  rwy="3000"
  state="AK"
  var="29.0"/>
 <Airport
  city="Chistochina"
  elev="1850"
  id="CZO"
  lat="62.563"
  lon="-144.669"
  name="Chistochina"
  rwy="2060"
  state="AK"
  var="28.0"/>
 <Airport
  city="Chitina"
  elev="556"
  id="CXC"
  lat="61.583"
  lon="-144.427"
  name="Chitina"
  rwy="2850"
  state="AK"
  var="27.0"/>
 <Airport
  city="Chuathbaluk"
  elev="243"
  id="9A3"
  lat="61.579"
  lon="-159.216"
  name="Chuathbaluk"
  rwy="3401"
  state="AK"
  var="21.0"/>
 <Airport
  city="Chugiak"
  elev="420"
  id="AK24"
  lat="61.418"
  lon="-149.439"
  name="Hilltop"
  rwy="1400"
  state="AK"
  var="25.0"/>
 <Airport
  city="Circle"
  elev="613"
  id="CRC"
  lat="65.828"
  lon="-144.076"
  name="Circle City/Ne"
  rwy="2979"
  state="AK"
  var="30.0"/>
 <Airport
  city="Circle Hot Springs"
  elev="956"
  id="CHP"
  lat="65.485"
  lon="-144.611"
  name="Circle Hot Springs"
  rwy="3650"
  state="AK"
  var="30.0"/>
 <Airport
  city="Clarks Point"
  elev="80"
  id="CLP"
  lat="58.834"
  lon="-158.529"
  name="Clarks Point"
  rwy="3200"
  state="AK"
  var="20.0"/>
 <Airport
  city="Clear"
  elev="650"
  id="CLF"
  lat="64.257"
  lon="-149.186"
  name="Clear Sky Lodge"
  rwy="2500"
  state="AK"
  var="27.0"/>
 <Airport
  city="Clear"
  elev="552"
  id="Z84"
  lat="64.301"
  lon="-149.120"
  name="Clear"
  rwy="4000"
  state="AK"
  var="21.4"/>
 <Airport
  city="Clearwater"
  elev="2900"
  id="Z86"
  lat="63.027"
  lon="-147.179"
  name="Clearwater"
  rwy="350"
  state="AK"
  var="27.0"/>
 <Airport
  city="Cold Bay"
  elev="96"
  id="CDB"
  lat="55.206"
  lon="-162.725"
  name="Cold Bay"
  rwy="10415"
  state="AK"
  var="13.3"/>
 <Airport
  city="Cold Bay"
  elev="20"
  id="1AK3"
  lat="56.006"
  lon="-160.561"
  name="Port Moller"
  rwy="3500"
  state="AK"
  var="16.0"/>
 <Airport
  city="Coldfoot"
  elev="1042"
  id="CXF"
  lat="67.252"
  lon="-150.204"
  name="Coldfoot"
  rwy="4000"
  state="AK"
  var="22.3"/>
 <Airport
  city="Colorado Creek"
  elev="860"
  id="KCR"
  lat="63.568"
  lon="-155.989"
  name="Colorado Creek"
  rwy="3250"
  state="AK"
  var="23.0"/>
 <Airport
  city="Cooper Landing"
  elev="450"
  id="JLA"
  lat="60.483"
  lon="-149.719"
  name="Quartz Creek"
  rwy="2200"
  state="AK"
  var="25.0"/>
 <Airport
  city="Copper Center"
  elev="1150"
  id="Z93"
  lat="61.941"
  lon="-145.294"
  name="Copper Center 2"
  rwy="2200"
  state="AK"
  var="27.0"/>
 <Airport
  city="Cordova"
  elev="50"
  id="AK30"
  lat="60.391"
  lon="-146.097"
  name="Strawberry Point"
  rwy="1600"
  state="AK"
  var=""/>
 <Airport
  city="Cordova"
  elev="12"
  id="CKU"
  lat="60.544"
  lon="-145.727"
  name="Cordova Muni"
  rwy="8000"
  state="AK"
  var="26.0"/>
 <Airport
  city="Cordova"
  elev="48"
  id="CDV"
  lat="60.492"
  lon="-145.478"
  name="Merle K Mudhole Smith"
  rwy="7500"
  state="AK"
  var="21.4"/>
 <Airport
  city="Council"
  elev="85"
  id="K29"
  lat="64.898"
  lon="-163.703"
  name="Council"
  rwy="3000"
  state="AK"
  var="18.0"/>
 <Airport
  city="Crevice Creek"
  elev="840"
  id="1AK1"
  lat="67.373"
  lon="-152.016"
  name="Crevice Creek"
  rwy="2250"
  state="AK"
  var="26.0"/>
 <Airport
  city="Crooked Creek"
  elev="178"
  id="CJX"
  lat="61.868"
  lon="-158.135"
  name="Crooked Creek"
  rwy="1997"
  state="AK"
  var="21.0"/>
 <Airport
  city="Crosswind Lake"
  elev="2125"
  id="1AK2"
  lat="62.401"
  lon="-146.013"
  name="Crosswind Lake"
  rwy="1160"
  state="AK"
  var="27.0"/>
 <Airport
  city="Dahl Creek"
  elev="260"
  id="DCK"
  lat="66.943"
  lon="-156.905"
  name="Dahl Creek"
  rwy="4780"
  state="AK"
  var="23.0"/>
 <Airport
  city="Deadhorse"
  elev="192"
  id="4AK1"
  lat="70.004"
  lon="-153.078"
  name="Inigok"
  rwy="5000"
  state="AK"
  var=""/>
 <Airport
  city="Deadhorse"
  elev="18"
  id="AK15"
  lat="70.344"
  lon="-150.945"
  name="Alpine Airstrip"
  rwy="5000"
  state="AK"
  var="27.0"/>
 <Airport
  city="Deadhorse"
  elev="7"
  id="22AK"
  lat="70.428"
  lon="-150.403"
  name="Helmericks"
  rwy="2500"
  state="AK"
  var="29.0"/>
 <Airport
  city="Deadhorse"
  elev="64"
  id="SCC"
  lat="70.195"
  lon="-148.465"
  name="Deadhorse"
  rwy="6500"
  state="AK"
  var="24.3"/>
 <Airport
  city="Deadhorse"
  elev="26"
  id="AK78"
  lat="70.137"
  lon="-147.030"
  name="Badami"
  rwy="5100"
  state="AK"
  var=""/>
 <Airport
  city="Deadhorse"
  elev="0"
  id="AA50"
  lat="70.181"
  lon="-146.350"
  name="Point Thomson Sea Ice Airstrip"
  rwy="5000"
  state="AK"
  var="26.0"/>
 <Airport
  city="Deering"
  elev="21"
  id="DEE"
  lat="66.070"
  lon="-162.766"
  name="Deering"
  rwy="3300"
  state="AK"
  var="15.3"/>
 <Airport
  city="Delta Junction"
  elev="1009"
  id="9AK4"
  lat="64.137"
  lon="-145.830"
  name="Arctic Angel"
  rwy="2800"
  state="AK"
  var="28.0"/>
 <Airport
  city="Delta Junction"
  elev="1070"
  id="AA22"
  lat="64.133"
  lon="-145.804"
  name="Delta Daves"
  rwy="2350"
  state="AK"
  var=""/>
 <Airport
  city="Delta Junction"
  elev="1150"
  id="D66"
  lat="64.050"
  lon="-145.717"
  name="Delta Junction"
  rwy="2500"
  state="AK"
  var="28.0"/>
 <Airport
  city="Delta Junction"
  elev="1100"
  id="AK09"
  lat="64.050"
  lon="-145.502"
  name="Wingsong Estates"
  rwy="2380"
  state="AK"
  var="28.0"/>
 <Airport
  city="Delta Junction"
  elev="1190"
  id="11AK"
  lat="64.000"
  lon="-145.502"
  name="Rocking T. Ranch"
  rwy="2400"
  state="AK"
  var="28.0"/>
 <Airport
  city="Delta Junction"
  elev="1300"
  id="45AK"
  lat="63.962"
  lon="-145.470"
  name="Cherokee"
  rwy="2600"
  state="AK"
  var="29.0"/>
 <Airport
  city="Delta Junction"
  elev="1275"
  id="AK77"
  lat="63.941"
  lon="-145.422"
  name="All West"
  rwy="5500"
  state="AK"
  var=""/>
 <Airport
  city="Delta Junction"
  elev="1250"
  id="29AK"
  lat="64.050"
  lon="-145.419"
  name="Remington Field"
  rwy="1800"
  state="AK"
  var="28.0"/>
 <Airport
  city="Delta Junction"
  elev="1350"
  id="76AK"
  lat="64.467"
  lon="-144.921"
  name="Pogo Mine Airstrip"
  rwy="3000"
  state="AK"
  var=""/>
 <Airport
  city="Delta Junction Ft Greely"
  elev="1291"
  id="BIG"
  lat="63.995"
  lon="-145.722"
  name="Allen Aaf"
  rwy="8018"
  state="AK"
  var="22.6"/>
 <Airport
  city="Denali"
  elev="2525"
  id="0Z2"
  lat="63.108"
  lon="-147.532"
  name="Road Commission Nr 1"
  rwy="1000"
  state="AK"
  var="27.0"/>
 <Airport
  city="Dillingham"
  elev="74"
  id="DLG"
  lat="59.045"
  lon="-158.506"
  name="Dillingham"
  rwy="6400"
  state="AK"
  var="16.1"/>
 <Airport
  city="Dillingham"
  elev="40"
  id="AK21"
  lat="59.133"
  lon="-157.777"
  name="Nushagak"
  rwy="1000"
  state="AK"
  var="19.0"/>
 <Airport
  city="Dutch Harbor"
  elev="24"
  id="AK23"
  lat="53.971"
  lon="-166.877"
  name="Driftwood Bay Air Force Station"
  rwy="3500"
  state="AK"
  var="12.0"/>
 <Airport
  city="Eagle"
  elev="908"
  id="EAA"
  lat="64.778"
  lon="-141.150"
  name="Eagle"
  rwy="3600"
  state="AK"
  var="31.0"/>
 <Airport
  city="Eagle River"
  elev="650"
  id="47AK"
  lat="61.292"
  lon="-149.532"
  name="Highland"
  rwy="1400"
  state="AK"
  var="22.0"/>
 <Airport
  city="Eek"
  elev="12"
  id="EEK"
  lat="60.214"
  lon="-162.044"
  name="Eek"
  rwy="3243"
  state="AK"
  var="15.0"/>
 <Airport
  city="Egegik"
  elev="92"
  id="EII"
  lat="58.185"
  lon="-157.375"
  name="Egegik"
  rwy="5600"
  state="AK"
  var="16.2"/>
 <Airport
  city="Ekuk"
  elev="30"
  id="KKU"
  lat="58.811"
  lon="-158.559"
  name="Ekuk"
  rwy="1200"
  state="AK"
  var="20.0"/>
 <Airport
  city="Ekwok"
  elev="135"
  id="KEK"
  lat="59.357"
  lon="-157.471"
  name="Ekwok"
  rwy="3300"
  state="AK"
  var="17.0"/>
 <Airport
  city="Elim"
  elev="162"
  id="ELI"
  lat="64.615"
  lon="-162.271"
  name="Elim"
  rwy="3401"
  state="AK"
  var="19.0"/>
 <Airport
  city="Elim"
  elev="14"
  id="MOS"
  lat="64.698"
  lon="-162.057"
  name="Moses Point"
  rwy="1390"
  state="AK"
  var="15.4"/>
 <Airport
  city="Emmonak"
  elev="8"
  id="ENM"
  lat="62.786"
  lon="-164.491"
  name="Emmonak"
  rwy="4601"
  state="AK"
  var="13.5"/>
 <Airport
  city="Eureka Creek"
  elev="700"
  id="2Z2"
  lat="65.176"
  lon="-150.221"
  name="Eureka Creek"
  rwy="1500"
  state="AK"
  var="26.0"/>
 <Airport
  city="Eva Creek"
  elev="2817"
  id="2Z3"
  lat="64.042"
  lon="-148.863"
  name="Eva Creek"
  rwy="950"
  state="AK"
  var="27.0"/>
 <Airport
  city="Fairbanks"
  elev="800"
  id="83AK"
  lat="65.257"
  lon="-148.830"
  name="Tolovana Hot Springs"
  rwy="1500"
  state="AK"
  var=""/>
 <Airport
  city="Fairbanks"
  elev="1720"
  id="AK7"
  lat="64.199"
  lon="-147.928"
  name="Gold King Creek"
  rwy="2558"
  state="AK"
  var="25.0"/>
 <Airport
  city="Fairbanks"
  elev="427"
  id="AK28"
  lat="64.814"
  lon="-147.919"
  name="Chena Marina"
  rwy="4700"
  state="AK"
  var="27.0"/>
 <Airport
  city="Fairbanks"
  elev="664"
  id="32AK"
  lat="64.909"
  lon="-147.914"
  name="Hardrock Field"
  rwy="1600"
  state="AK"
  var="25.0"/>
 <Airport
  city="Fairbanks"
  elev="434"
  id="FAI"
  lat="64.815"
  lon="-147.856"
  name="Fairbanks Intl"
  rwy="11050"
  state="AK"
  var="22.3"/>
 <Airport
  city="Fairbanks"
  elev="432"
  id="MTF"
  lat="64.807"
  lon="-147.762"
  name="Metro Fld"
  rwy="4600"
  state="AK"
  var="22.3"/>
 <Airport
  city="Fairbanks"
  elev="582"
  id="AK52"
  lat="64.889"
  lon="-147.536"
  name="Moen&apos;s Ranch"
  rwy="1320"
  state="AK"
  var="25.0"/>
 <Airport
  city="Fairbanks"
  elev="475"
  id="AK22"
  lat="64.822"
  lon="-147.522"
  name="Lakloey Air Park"
  rwy="4000"
  state="AK"
  var="27.0"/>
 <Airport
  city="Fairbanks"
  elev="450"
  id="31AK"
  lat="64.833"
  lon="-147.425"
  name="Dalrymple&apos;s"
  rwy="2400"
  state="AK"
  var="28.0"/>
 <Airport
  city="Fairbanks"
  elev="548"
  id="EIL"
  lat="64.666"
  lon="-147.101"
  name="Eielson Afb"
  rwy="14507"
  state="AK"
  var="22.4"/>
 <Airport
  city="Fairbanks/Ft Wainwrigh"
  elev="660"
  id="2AK2"
  lat="64.453"
  lon="-147.563"
  name="Clear Creek"
  rwy="3988"
  state="AK"
  var="28.0"/>
 <Airport
  city="Fairbanks/Ft Wainwrigh"
  elev="910"
  id="2AK1"
  lat="64.364"
  lon="-147.364"
  name="Blair Lake"
  rwy="1530"
  state="AK"
  var="28.0"/>
 <Airport
  city="Fairbanks/Ft Wainwright"
  elev="454"
  id="FBK"
  lat="64.838"
  lon="-147.614"
  name="Ladd Aaf"
  rwy="8570"
  state="AK"
  var="22.3"/>
 <Airport
  city="False Pass"
  elev="20"
  id="KFP"
  lat="54.847"
  lon="-163.410"
  name="False Pass"
  rwy="2100"
  state="AK"
  var="16.0"/>
 <Airport
  city="Farewell"
  elev="1535"
  id="FWL"
  lat="62.507"
  lon="-153.894"
  name="Farewell"
  rwy="4970"
  state="AK"
  var="24.0"/>
 <Airport
  city="Farewell Lake"
  elev="1151"
  id="TNW"
  lat="62.532"
  lon="-153.611"
  name="Tin Creek"
  rwy="1200"
  state="AK"
  var="24.0"/>
 <Airport
  city="Feather River"
  elev="325"
  id="3Z1"
  lat="64.832"
  lon="-166.132"
  name="Feather River"
  rwy="1190"
  state="AK"
  var="16.0"/>
 <Airport
  city="Five Mile"
  elev="510"
  id="FVM"
  lat="65.927"
  lon="-149.840"
  name="Five Mile"
  rwy="2700"
  state="AK"
  var="28.0"/>
 <Airport
  city="Flat"
  elev="309"
  id="FLT"
  lat="62.453"
  lon="-157.989"
  name="Flat"
  rwy="4045"
  state="AK"
  var="21.0"/>
 <Airport
  city="Fort Richardson(anchorage)"
  elev="378"
  id="FRN"
  lat="61.266"
  lon="-149.653"
  name="Bryant Ahp"
  rwy="4175"
  state="AK"
  var="20.3"/>
 <Airport
  city="Fort Yukon"
  elev="433"
  id="FYU"
  lat="66.571"
  lon="-145.250"
  name="Fort Yukon"
  rwy="5810"
  state="AK"
  var="24.1"/>
 <Airport
  city="Galbraith Lake"
  elev="2663"
  id="GBH"
  lat="68.480"
  lon="-149.490"
  name="Galbraith Lake"
  rwy="5182"
  state="AK"
  var="22.0"/>
 <Airport
  city="Galena"
  elev="152"
  id="GAL"
  lat="64.736"
  lon="-156.937"
  name="Edward G Pitka Sr"
  rwy="7254"
  state="AK"
  var="18.2"/>
 <Airport
  city="Gambell"
  elev="27"
  id="GAM"
  lat="63.767"
  lon="-171.733"
  name="Gambell"
  rwy="4501"
  state="AK"
  var="9.5"/>
 <Airport
  city="Girdwood"
  elev="150"
  id="AQY"
  lat="60.966"
  lon="-149.126"
  name="Girdwood"
  rwy="2088"
  state="AK"
  var="25.0"/>
 <Airport
  city="Glacier Creek"
  elev="2380"
  id="KGZ"
  lat="61.455"
  lon="-142.381"
  name="Glacier Creek"
  rwy="1400"
  state="AK"
  var="28.0"/>
 <Airport
  city="Golovin"
  elev="59"
  id="N93"
  lat="64.550"
  lon="-163.007"
  name="Golovin"
  rwy="4000"
  state="AK"
  var="15.0"/>
 <Airport
  city="Goodnews"
  elev="15"
  id="GNU"
  lat="59.117"
  lon="-161.577"
  name="Goodnews"
  rwy="2835"
  state="AK"
  var="18.0"/>
 <Airport
  city="Goose Bay"
  elev="78"
  id="Z40"
  lat="61.394"
  lon="-149.846"
  name="Goose Bay"
  rwy="3000"
  state="AK"
  var="25.0"/>
 <Airport
  city="Granite Mountain"
  elev="1313"
  id="GSZ"
  lat="65.402"
  lon="-161.281"
  name="Granite Mountain Afs"
  rwy="3871"
  state="AK"
  var="16.1"/>
 <Airport
  city="Grayling"
  elev="99"
  id="KGX"
  lat="62.895"
  lon="-160.065"
  name="Grayling"
  rwy="2315"
  state="AK"
  var="20.0"/>
 <Airport
  city="Gulkana"
  elev="1580"
  id="GKN"
  lat="62.155"
  lon="-145.457"
  name="Gulkana"
  rwy="5000"
  state="AK"
  var="22.2"/>
 <Airport
  city="Gulkana"
  elev="1670"
  id="8AK1"
  lat="62.280"
  lon="-145.363"
  name="Jacobus Field"
  rwy="1200"
  state="AK"
  var=""/>
 <Airport
  city="Gustavus"
  elev="34"
  id="GST"
  lat="58.425"
  lon="-135.707"
  name="Gustavus"
  rwy="6720"
  state="AK"
  var="22.5"/>
 <Airport
  city="Haines"
  elev="15"
  id="HNS"
  lat="59.244"
  lon="-135.524"
  name="Haines"
  rwy="4000"
  state="AK"
  var="23.1"/>
 <Airport
  city="Hannum Creek"
  elev="1300"
  id="4Z2"
  lat="65.905"
  lon="-163.329"
  name="Upper Hannum Creek"
  rwy="1400"
  state="AK"
  var="19.0"/>
 <Airport
  city="Healy"
  elev="1263"
  id="HRR"
  lat="63.868"
  lon="-148.969"
  name="Healy River"
  rwy="2912"
  state="AK"
  var="27.0"/>
 <Airport
  city="Herendeen Bay"
  elev="20"
  id="AK33"
  lat="55.801"
  lon="-160.899"
  name="Herendeen Bay"
  rwy="1090"
  state="AK"
  var="18.0"/>
 <Airport
  city="Hinchinbrook"
  elev="15"
  id="2AK5"
  lat="60.482"
  lon="-146.584"
  name="Johnstone Point"
  rwy="1700"
  state="AK"
  var="26.0"/>
 <Airport
  city="Hogatza"
  elev="534"
  id="2AK6"
  lat="66.216"
  lon="-155.669"
  name="Hog River"
  rwy="5500"
  state="AK"
  var="24.0"/>
 <Airport
  city="Holy Cross"
  elev="70"
  id="HCA"
  lat="62.188"
  lon="-159.775"
  name="Holy Cross"
  rwy="4000"
  state="AK"
  var="16.1"/>
 <Airport
  city="Homer"
  elev="8"
  id="AK18"
  lat="59.829"
  lon="-153.081"
  name="Camp Point"
  rwy="1100"
  state="AK"
  var="22.0"/>
 <Airport
  city="Homer"
  elev="45"
  id="2AK4"
  lat="59.470"
  lon="-151.512"
  name="Oyster Cove"
  rwy="1200"
  state="AK"
  var="23.0"/>
 <Airport
  city="Homer"
  elev="84"
  id="HOM"
  lat="59.646"
  lon="-151.477"
  name="Homer"
  rwy="6701"
  state="AK"
  var="19.1"/>
 <Airport
  city="Homer"
  elev="1600"
  id="AK17"
  lat="59.764"
  lon="-151.223"
  name="Glacierview Strip"
  rwy="1555"
  state="AK"
  var="23.0"/>
 <Airport
  city="Homer"
  elev="1190"
  id="98AK"
  lat="59.776"
  lon="-151.182"
  name="Eastland"
  rwy="2000"
  state="AK"
  var=""/>
 <Airport
  city="Homer"
  elev="115"
  id="46AK"
  lat="59.738"
  lon="-151.030"
  name="Bear Cove Farm"
  rwy="1250"
  state="AK"
  var="24.0"/>
 <Airport
  city="Homer"
  elev="18"
  id="0AK7"
  lat="59.776"
  lon="-150.959"
  name="Bradley Lake Hydroelectri Project Airstrip"
  rwy="2400"
  state="AK"
  var=""/>
 <Airport
  city="Hoonah"
  elev="19"
  id="HNH"
  lat="58.096"
  lon="-135.410"
  name="Hoonah"
  rwy="2997"
  state="AK"
  var="23.0"/>
 <Airport
  city="Hooper Bay"
  elev="7"
  id="HPB"
  lat="61.524"
  lon="-166.147"
  name="Hooper Bay"
  rwy="3300"
  state="AK"
  var="12.4"/>
 <Airport
  city="Hope"
  elev="200"
  id="5HO"
  lat="60.904"
  lon="-149.624"
  name="Hope"
  rwy="2000"
  state="AK"
  var="25.0"/>
 <Airport
  city="Horsfeld"
  elev="3300"
  id="4Z5"
  lat="62.007"
  lon="-141.181"
  name="Horsfeld"
  rwy="900"
  state="AK"
  var="29.0"/>
 <Airport
  city="Houston"
  elev="350"
  id="13AK"
  lat="61.655"
  lon="-149.900"
  name="Satterbergs"
  rwy="980"
  state="AK"
  var="25.0"/>
 <Airport
  city="Houston"
  elev="315"
  id="AA30"
  lat="61.648"
  lon="-149.871"
  name="Trio Estates"
  rwy="1285"
  state="AK"
  var=""/>
 <Airport
  city="Houston"
  elev="246"
  id="AK29"
  lat="61.613"
  lon="-149.852"
  name="Reids Landing"
  rwy="1600"
  state="AK"
  var="22.0"/>
 <Airport
  city="Houston"
  elev="350"
  id="AK89"
  lat="61.657"
  lon="-149.837"
  name="Black Spruce"
  rwy="1000"
  state="AK"
  var=""/>
 <Airport
  city="Houston"
  elev="120"
  id="AA33"
  lat="61.604"
  lon="-149.770"
  name="Gus Landing"
  rwy="1700"
  state="AK"
  var=""/>
 <Airport
  city="Hughes"
  elev="299"
  id="HUS"
  lat="66.039"
  lon="-154.265"
  name="Hughes"
  rwy="3380"
  state="AK"
  var="24.0"/>
 <Airport
  city="Huslia"
  elev="213"
  id="HLA"
  lat="65.698"
  lon="-156.351"
  name="Huslia"
  rwy="4000"
  state="AK"
  var="18.5"/>
 <Airport
  city="Icy Bay"
  elev="50"
  id="19AK"
  lat="59.969"
  lon="-141.662"
  name="Icy Bay"
  rwy="3430"
  state="AK"
  var="27.0"/>
 <Airport
  city="Icy Cape"
  elev="48"
  id="2AK8"
  lat="70.292"
  lon="-161.903"
  name="Icy Cape Afs"
  rwy="3200"
  state="AK"
  var="21.0"/>
 <Airport
  city="Igiugig"
  elev="90"
  id="IGG"
  lat="59.324"
  lon="-155.902"
  name="Igiugig"
  rwy="3000"
  state="AK"
  var="17.2"/>
 <Airport
  city="Iliamna"
  elev="186"
  id="ILI"
  lat="59.754"
  lon="-154.911"
  name="Iliamna"
  rwy="5087"
  state="AK"
  var="17.4"/>
 <Airport
  city="Independence Creek"
  elev="250"
  id="2AK9"
  lat="65.673"
  lon="-162.464"
  name="Independence Creek"
  rwy="1800"
  state="AK"
  var="19.0"/>
 <Airport
  city="Jakolof Bay"
  elev="5"
  id="4Z9"
  lat="59.452"
  lon="-151.522"
  name="Jakolof Bay"
  rwy="1000"
  state="AK"
  var="23.0"/>
 <Airport
  city="Jensens"
  elev="240"
  id="AK60"
  lat="57.885"
  lon="-157.097"
  name="Fort Jensen"
  rwy="4700"
  state="AK"
  var="20.0"/>
 <Airport
  city="Juneau"
  elev="21"
  id="JNU"
  lat="58.355"
  lon="-134.576"
  name="Juneau Intl"
  rwy="8457"
  state="AK"
  var="22.6"/>
 <Airport
  city="Kake"
  elev="172"
  id="AFE"
  lat="56.961"
  lon="-133.910"
  name="Kake"
  rwy="4000"
  state="AK"
  var="22.2"/>
 <Airport
  city="Kaktovik"
  elev="18"
  id="8AK7"
  lat="70.173"
  lon="-146.836"
  name="Bullen Point Air Force Station"
  rwy="3520"
  state="AK"
  var="28.0"/>
 <Airport
  city="Kalakaket Creek"
  elev="1598"
  id="1KC"
  lat="64.424"
  lon="-156.843"
  name="Kalakaket Creek As"
  rwy="4000"
  state="AK"
  var="20.0"/>
 <Airport
  city="Kalskag"
  elev="55"
  id="KLG"
  lat="61.536"
  lon="-160.341"
  name="Kalskag"
  rwy="3200"
  state="AK"
  var="15.5"/>
 <Airport
  city="Kaltag"
  elev="187"
  id="KAL"
  lat="64.319"
  lon="-158.741"
  name="Kaltag"
  rwy="5000"
  state="AK"
  var="17.1"/>
 <Airport
  city="Kantishna"
  elev="1575"
  id="5Z5"
  lat="63.542"
  lon="-150.994"
  name="Kantishna"
  rwy="1850"
  state="AK"
  var="25.0"/>
 <Airport
  city="Kantishna"
  elev="1850"
  id="Z90"
  lat="63.749"
  lon="-150.330"
  name="Stampede"
  rwy="1960"
  state="AK"
  var="26.0"/>
 <Airport
  city="Karluk"
  elev="137"
  id="KYK"
  lat="57.566"
  lon="-154.454"
  name="Karluk"
  rwy="2000"
  state="AK"
  var="21.0"/>
 <Airport
  city="Kasigluk"
  elev="48"
  id="Z09"
  lat="60.873"
  lon="-162.524"
  name="Kasigluk"
  rwy="3000"
  state="AK"
  var="18.0"/>
 <Airport
  city="Kasilof"
  elev="125"
  id="5KS"
  lat="60.353"
  lon="-151.263"
  name="Kasilof"
  rwy="2165"
  state="AK"
  var="24.0"/>
 <Airport
  city="Kasitsna Bay"
  elev="5"
  id="5Z7"
  lat="59.469"
  lon="-151.573"
  name="Kasitsna"
  rwy="800"
  state="AK"
  var="23.0"/>
 <Airport
  city="Kenai"
  elev="30"
  id="3AK5"
  lat="60.589"
  lon="-152.162"
  name="Drift River"
  rwy="4100"
  state="AK"
  var="24.0"/>
 <Airport
  city="Kenai"
  elev="102"
  id="3AK4"
  lat="60.632"
  lon="-151.340"
  name="Johnson"
  rwy="1860"
  state="AK"
  var="24.0"/>
 <Airport
  city="Kenai"
  elev="100"
  id="75AK"
  lat="60.593"
  lon="-151.328"
  name="Henley"
  rwy="2640"
  state="AK"
  var=""/>
 <Airport
  city="Kenai"
  elev="150"
  id="8AK2"
  lat="60.703"
  lon="-151.294"
  name="Carty&apos;s Airstrip"
  rwy="2600"
  state="AK"
  var="24.0"/>
 <Airport
  city="Kenai"
  elev="185"
  id="6AK3"
  lat="60.729"
  lon="-151.278"
  name="Butler Aviation"
  rwy="1900"
  state="AK"
  var="23.0"/>
 <Airport
  city="Kenai"
  elev="50"
  id="30AK"
  lat="60.503"
  lon="-151.260"
  name="Doyle Estates"
  rwy="2400"
  state="AK"
  var="23.0"/>
 <Airport
  city="Kenai"
  elev="63"
  id="52AK"
  lat="60.506"
  lon="-151.246"
  name="Basquo"
  rwy="2700"
  state="AK"
  var="21.0"/>
 <Airport
  city="Kenai"
  elev="99"
  id="ENA"
  lat="60.573"
  lon="-151.245"
  name="Kenai Muni"
  rwy="7575"
  state="AK"
  var="19.4"/>
 <Airport
  city="Ketchikan"
  elev="88"
  id="KTN"
  lat="55.356"
  lon="-131.714"
  name="Ketchikan Intl"
  rwy="7500"
  state="AK"
  var="21.4"/>
 <Airport
  city="Kiana"
  elev="166"
  id="IAN"
  lat="66.976"
  lon="-160.437"
  name="Bob Baker Mem"
  rwy="3400"
  state="AK"
  var="17.0"/>
 <Airport
  city="King Cove"
  elev="155"
  id="KVC"
  lat="55.116"
  lon="-162.266"
  name="King Cove"
  rwy="3360"
  state="AK"
  var="13.4"/>
 <Airport
  city="King Salmon"
  elev="68"
  id="AKN"
  lat="58.677"
  lon="-156.649"
  name="King Salmon"
  rwy="8501"
  state="AK"
  var="16.5"/>
 <Airport
  city="Kipnuk"
  elev="11"
  id="IIK"
  lat="59.933"
  lon="-164.031"
  name="Kipnuk"
  rwy="2120"
  state="AK"
  var="13.4"/>
 <Airport
  city="Kivalina"
  elev="13"
  id="KVL"
  lat="67.736"
  lon="-164.563"
  name="Kivalina"
  rwy="3000"
  state="AK"
  var="14.5"/>
 <Airport
  city="Klawock"
  elev="80"
  id="AKW"
  lat="55.579"
  lon="-133.076"
  name="Klawock"
  rwy="5000"
  state="AK"
  var="21.4"/>
 <Airport
  city="Kobuk"
  elev="137"
  id="OBU"
  lat="66.912"
  lon="-156.897"
  name="Kobuk"
  rwy="4000"
  state="AK"
  var="19.0"/>
 <Airport
  city="Kodiak"
  elev="78"
  id="ADQ"
  lat="57.750"
  lon="-152.494"
  name="Kodiak"
  rwy="7542"
  state="AK"
  var="18.2"/>
 <Airport
  city="Kodiak"
  elev="139"
  id="KDK"
  lat="57.806"
  lon="-152.374"
  name="Kodiak Muni"
  rwy="2475"
  state="AK"
  var="22.0"/>
 <Airport
  city="Koggiung"
  elev="30"
  id="5KO"
  lat="58.870"
  lon="-157.010"
  name="Koggiung"
  rwy="1000"
  state="AK"
  var="21.0"/>
 <Airport
  city="Kokhanok"
  elev="115"
  id="9K2"
  lat="59.433"
  lon="-154.803"
  name="Kokhanok"
  rwy="3300"
  state="AK"
  var="22.0"/>
 <Airport
  city="Koliganek"
  elev="269"
  id="JZZ"
  lat="59.727"
  lon="-157.259"
  name="Koliganek"
  rwy="3000"
  state="AK"
  var="16.5"/>
 <Airport
  city="Kongiganak"
  elev="30"
  id="DUY"
  lat="59.961"
  lon="-162.881"
  name="Kongiganak"
  rwy="1885"
  state="AK"
  var="18.0"/>
 <Airport
  city="Kotlik"
  elev="15"
  id="2A9"
  lat="63.031"
  lon="-163.533"
  name="Kotlik"
  rwy="4422"
  state="AK"
  var="14.3"/>
 <Airport
  city="Kotzebue"
  elev="11"
  id="OTZ"
  lat="66.885"
  lon="-162.599"
  name="Ralph Wien Mem"
  rwy="5900"
  state="AK"
  var="15.5"/>
 <Airport
  city="Koyuk"
  elev="154"
  id="KKA"
  lat="64.939"
  lon="-161.154"
  name="Koyuk Alfred Adams"
  rwy="3000"
  state="AK"
  var="16.1"/>
 <Airport
  city="Koyukuk"
  elev="149"
  id="KYU"
  lat="64.876"
  lon="-157.730"
  name="Koyukuk"
  rwy="4000"
  state="AK"
  var="22.0"/>
 <Airport
  city="Kulik Lake"
  elev="717"
  id="LKK"
  lat="58.982"
  lon="-155.121"
  name="Kulik Lake"
  rwy="5000"
  state="AK"
  var="22.0"/>
 <Airport
  city="Kuparuk"
  elev="67"
  id="UBW"
  lat="70.331"
  lon="-149.598"
  name="Ugnu-Kuparuk"
  rwy="6000"
  state="AK"
  var="22.0"/>
 <Airport
  city="Kvichak"
  elev="25"
  id="9Z7"
  lat="58.963"
  lon="-156.932"
  name="Kvichak/Diamond "
  rwy="800"
  state="AK"
  var="21.0"/>
 <Airport
  city="Kwethluk"
  elev="25"
  id="KWT"
  lat="60.790"
  lon="-161.444"
  name="Kwethluk"
  rwy="3198"
  state="AK"
  var="14.0"/>
 <Airport
  city="Kwigillingok"
  elev="18"
  id="GGV"
  lat="59.876"
  lon="-163.169"
  name="Kwigillingok"
  rwy="2510"
  state="AK"
  var="14.0"/>
 <Airport
  city="Lake Louise"
  elev="2450"
  id="Z55"
  lat="62.294"
  lon="-146.579"
  name="Lake Louise"
  rwy="700"
  state="AK"
  var="27.0"/>
 <Airport
  city="Larsen Bay"
  elev="87"
  id="2A3"
  lat="57.535"
  lon="-153.977"
  name="Larsen Bay"
  rwy="2690"
  state="AK"
  var="21.0"/>
 <Airport
  city="Lawing"
  elev="475"
  id="9Z9"
  lat="60.411"
  lon="-149.370"
  name="Lawing"
  rwy="2200"
  state="AK"
  var="25.0"/>
 <Airport
  city="Levelock"
  elev="39"
  id="9Z8"
  lat="59.128"
  lon="-156.859"
  name="Levelock"
  rwy="3281"
  state="AK"
  var="18.0"/>
 <Airport
  city="Lime Village"
  elev="552"
  id="2AK"
  lat="61.359"
  lon="-155.440"
  name="Lime Village"
  rwy="1500"
  state="AK"
  var="22.0"/>
 <Airport
  city="Livengood"
  elev="425"
  id="4AK"
  lat="65.473"
  lon="-148.669"
  name="Livengood Camp"
  rwy="1415"
  state="AK"
  var="27.0"/>
 <Airport
  city="Lonely"
  elev="17"
  id="AK71"
  lat="70.911"
  lon="-153.242"
  name="Lonely As"
  rwy="5000"
  state="AK"
  var="28.0"/>
 <Airport
  city="Long Lake"
  elev="1500"
  id="4AK3"
  lat="61.378"
  lon="-143.326"
  name="Long Lake"
  rwy="1150"
  state="AK"
  var="28.0"/>
 <Airport
  city="Lost River"
  elev="220"
  id="AK45"
  lat="65.456"
  lon="-167.175"
  name="Lost River 2"
  rwy="3120"
  state="AK"
  var="16.0"/>
 <Airport
  city="Lost River"
  elev="80"
  id="LSR"
  lat="65.396"
  lon="-167.163"
  name="Lost River 1"
  rwy="3650"
  state="AK"
  var="16.0"/>
 <Airport
  city="Mankomen Lake"
  elev="3050"
  id="4AK5"
  lat="62.990"
  lon="-144.480"
  name="Mankomen Lake"
  rwy="2300"
  state="AK"
  var="28.0"/>
 <Airport
  city="Manley Hot Springs"
  elev="270"
  id="MLY"
  lat="64.998"
  lon="-150.644"
  name="Manley Hot Springs"
  rwy="2875"
  state="AK"
  var="26.0"/>
 <Airport
  city="Manokotak"
  elev="51"
  id="MBA"
  lat="58.990"
  lon="-159.050"
  name="Manokotak"
  rwy="2720"
  state="AK"
  var="15.5"/>
 <Airport
  city="Marshall"
  elev="103"
  id="MDM"
  lat="61.864"
  lon="-162.026"
  name="Marshall Don Hunter Sr"
  rwy="3201"
  state="AK"
  var="14.6"/>
 <Airport
  city="May Creek"
  elev="1580"
  id="0AK5"
  lat="61.357"
  lon="-142.733"
  name="Young Creek"
  rwy="1550"
  state="AK"
  var=""/>
 <Airport
  city="May Creek"
  elev="1650"
  id="MYK"
  lat="61.336"
  lon="-142.687"
  name="May Creek"
  rwy="2700"
  state="AK"
  var="28.0"/>
 <Airport
  city="Mccarthy"
  elev="1225"
  id="AK31"
  lat="61.411"
  lon="-143.001"
  name="Swift Creek"
  rwy="2000"
  state="AK"
  var="27.0"/>
 <Airport
  city="Mccarthy"
  elev="1531"
  id="15Z"
  lat="61.437"
  lon="-142.904"
  name="Mc Carthy"
  rwy="3500"
  state="AK"
  var="28.0"/>
 <Airport
  city="Mccarthy"
  elev="1052"
  id="AK0"
  lat="61.219"
  lon="-142.890"
  name="Jakes Bar"
  rwy="1000"
  state="AK"
  var="28.0"/>
 <Airport
  city="Mcgrath"
  elev="338"
  id="MCG"
  lat="62.953"
  lon="-155.606"
  name="Mc Grath"
  rwy="5388"
  state="AK"
  var="18.3"/>
 <Airport
  city="Mcgrath"
  elev="1510"
  id="AK40"
  lat="63.229"
  lon="-154.760"
  name="Nixon Fork Mine"
  rwy="4200"
  state="AK"
  var="21.0"/>
 <Airport
  city="Mckinley Park"
  elev="1720"
  id="INR"
  lat="63.733"
  lon="-148.911"
  name="Mc Kinley National Park"
  rwy="3000"
  state="AK"
  var="27.0"/>
 <Airport
  city="Mckinley Park"
  elev="2050"
  id="AK06"
  lat="63.645"
  lon="-148.798"
  name="Denali"
  rwy="4000"
  state="AK"
  var="27.0"/>
 <Airport
  city="Meadow Lakes"
  elev="100"
  id="24AK"
  lat="61.616"
  lon="-149.707"
  name="Toad Lake Strip"
  rwy="1300"
  state="AK"
  var="22.0"/>
 <Airport
  city="Mekoryuk"
  elev="48"
  id="MYU"
  lat="60.371"
  lon="-166.271"
  name="Mekoryuk"
  rwy="3070"
  state="AK"
  var="12.3"/>
 <Airport
  city="Middleton Island"
  elev="100"
  id="MDO"
  lat="59.450"
  lon="-146.307"
  name="Middleton Island"
  rwy="3158"
  state="AK"
  var="20.6"/>
 <Airport
  city="Minchumina"
  elev="678"
  id="MHM"
  lat="63.886"
  lon="-152.302"
  name="Minchumina"
  rwy="4200"
  state="AK"
  var="20.1"/>
 <Airport
  city="Minto"
  elev="460"
  id="51Z"
  lat="65.144"
  lon="-149.370"
  name="Minto Al Wright"
  rwy="2000"
  state="AK"
  var="27.0"/>
 <Airport
  city="Montana Creek"
  elev="250"
  id="0AK3"
  lat="62.036"
  lon="-150.494"
  name="Parker Lake"
  rwy="900"
  state="AK"
  var="25.0"/>
 <Airport
  city="Moore Creek"
  elev="980"
  id="99AK"
  lat="62.599"
  lon="-157.152"
  name="Moore Creek"
  rwy="1200"
  state="AK"
  var="22.0"/>
 <Airport
  city="Mountain Village"
  elev="337"
  id="MOU"
  lat="62.095"
  lon="-163.682"
  name="Mountain Village"
  rwy="3500"
  state="AK"
  var="14.1"/>
 <Airport
  city="Nabesna"
  elev="2880"
  id="IBN"
  lat="62.402"
  lon="-142.995"
  name="Devils Mountain Lodge"
  rwy="2000"
  state="AK"
  var="28.0"/>
 <Airport
  city="Nakeen"
  elev="50"
  id="76Z"
  lat="58.928"
  lon="-157.047"
  name="Nakeen"
  rwy="800"
  state="AK"
  var="21.0"/>
 <Airport
  city="Naknek"
  elev="70"
  id="5NK"
  lat="58.733"
  lon="-157.020"
  name="Naknek"
  rwy="2000"
  state="AK"
  var="21.0"/>
 <Airport
  city="Naknek"
  elev="50"
  id="4AK9"
  lat="58.734"
  lon="-157.007"
  name="Tibbetts"
  rwy="1700"
  state="AK"
  var="21.0"/>
 <Airport
  city="Nanwalek"
  elev="27"
  id="KEB"
  lat="59.352"
  lon="-151.925"
  name="Nanwalek"
  rwy="1850"
  state="AK"
  var="23.0"/>
 <Airport
  city="Nanwalek"
  elev="10"
  id="AK07"
  lat="59.241"
  lon="-151.877"
  name="Dog Fish Bay"
  rwy="1900"
  state="AK"
  var="22.0"/>
 <Airport
  city="Napaimute"
  elev="200"
  id="4AK8"
  lat="61.536"
  lon="-158.739"
  name="Napaimute Pioneer Airfield"
  rwy="2500"
  state="AK"
  var=""/>
 <Airport
  city="Napakiak"
  elev="17"
  id="WNA"
  lat="60.690"
  lon="-161.978"
  name="Napakiak"
  rwy="3248"
  state="AK"
  var="14.0"/>
 <Airport
  city="Napaskiak"
  elev="24"
  id="PKA"
  lat="60.703"
  lon="-161.778"
  name="Napaskiak"
  rwy="3000"
  state="AK"
  var="14.5"/>
 <Airport
  city="Nelson Lagoon"
  elev="14"
  id="OUL"
  lat="56.008"
  lon="-161.160"
  name="Nelson Lagoon"
  rwy="4000"
  state="AK"
  var="14.2"/>
 <Airport
  city="Nenana"
  elev="362"
  id="ENN"
  lat="64.547"
  lon="-149.074"
  name="Nenana Muni"
  rwy="4600"
  state="AK"
  var="21.5"/>
 <Airport
  city="New Stuyahok"
  elev="302"
  id="KNW"
  lat="59.451"
  lon="-157.326"
  name="New Stuyahok"
  rwy="1800"
  state="AK"
  var="16.4"/>
 <Airport
  city="Newtok"
  elev="25"
  id="EWU"
  lat="60.939"
  lon="-164.641"
  name="Newtok"
  rwy="2202"
  state="AK"
  var="17.0"/>
 <Airport
  city="Nightmute"
  elev="4"
  id="IGT"
  lat="60.471"
  lon="-164.701"
  name="Nightmute"
  rwy="1600"
  state="AK"
  var="17.0"/>
 <Airport
  city="Nikishka"
  elev="150"
  id="AK73"
  lat="60.725"
  lon="-151.302"
  name="Mcgahan Industrial Airpark"
  rwy="1500"
  state="AK"
  var="24.0"/>
 <Airport
  city="Nikolai"
  elev="441"
  id="FSP"
  lat="63.019"
  lon="-154.358"
  name="Nikolai"
  rwy="4003"
  state="AK"
  var="19.0"/>
 <Airport
  city="Nikolski"
  elev="77"
  id="IKO"
  lat="52.942"
  lon="-168.849"
  name="Nikolski As"
  rwy="3512"
  state="AK"
  var="10.2"/>
 <Airport
  city="Ninilchik"
  elev="276"
  id="NIN"
  lat="60.020"
  lon="-151.589"
  name="Ninilchik"
  rwy="2400"
  state="AK"
  var="24.0"/>
 <Airport
  city="Noatak"
  elev="88"
  id="WTK"
  lat="67.566"
  lon="-162.975"
  name="Noatak"
  rwy="4000"
  state="AK"
  var="15.4"/>
 <Airport
  city="Nome"
  elev="37"
  id="OME"
  lat="64.512"
  lon="-165.445"
  name="Nome"
  rwy="6001"
  state="AK"
  var="13.4"/>
 <Airport
  city="Nome"
  elev="59"
  id="94Z"
  lat="64.513"
  lon="-165.396"
  name="Nome City Field"
  rwy="1950"
  state="AK"
  var="17.0"/>
 <Airport
  city="Nondalton"
  elev="314"
  id="5NN"
  lat="59.979"
  lon="-154.839"
  name="Nondalton"
  rwy="2800"
  state="AK"
  var="17.6"/>
 <Airport
  city="Noorvik"
  elev="55"
  id="D76"
  lat="66.818"
  lon="-161.022"
  name="Robert/Bob/Curtis Memorial"
  rwy="4000"
  state="AK"
  var=""/>
 <Airport
  city="North Pole"
  elev="483"
  id="95Z"
  lat="64.759"
  lon="-147.388"
  name="Bradley Sky-Ranch"
  rwy="4100"
  state="AK"
  var="28.0"/>
 <Airport
  city="North Pole"
  elev="490"
  id="5AK2"
  lat="64.731"
  lon="-147.348"
  name="Howards"
  rwy="1800"
  state="AK"
  var="28.0"/>
 <Airport
  city="North Pole"
  elev="480"
  id="5AK3"
  lat="64.773"
  lon="-147.334"
  name="Airway"
  rwy="2550"
  state="AK"
  var="28.0"/>
 <Airport
  city="North Pole"
  elev="480"
  id="AA76"
  lat="64.769"
  lon="-147.329"
  name="Timber Trails"
  rwy="2450"
  state="AK"
  var=""/>
 <Airport
  city="North Pole"
  elev="800"
  id="0AK0"
  lat="64.392"
  lon="-146.862"
  name="Scotts"
  rwy="1050"
  state="AK"
  var="27.0"/>
 <Airport
  city="North Pole"
  elev="925"
  id="AK41"
  lat="64.544"
  lon="-146.844"
  name="Greg&apos;n Sage"
  rwy="1800"
  state="AK"
  var="27.0"/>
 <Airport
  city="Northway"
  elev="1716"
  id="ORT"
  lat="62.961"
  lon="-141.929"
  name="Northway"
  rwy="3304"
  state="AK"
  var="23.4"/>
 <Airport
  city="Nugget Bench"
  elev="2010"
  id="33AK"
  lat="62.517"
  lon="-150.945"
  name="Nugget Bench"
  rwy="1240"
  state="AK"
  var="25.0"/>
 <Airport
  city="Nuiqsut"
  elev="38"
  id="AQT"
  lat="70.210"
  lon="-151.006"
  name="Nuiqsut"
  rwy="4343"
  state="AK"
  var="23.2"/>
 <Airport
  city="Nuiqsut"
  elev="7"
  id="AK20"
  lat="70.421"
  lon="-150.887"
  name="Cd-3 Airstrip"
  rwy="3500"
  state="AK"
  var=""/>
 <Airport
  city="Nulato"
  elev="399"
  id="NUL"
  lat="64.729"
  lon="-158.074"
  name="Nulato"
  rwy="4000"
  state="AK"
  var="17.4"/>
 <Airport
  city="Nunapitchuk"
  elev="12"
  id="16A"
  lat="60.906"
  lon="-162.441"
  name="Nunapitchuk"
  rwy="3000"
  state="AK"
  var="18.0"/>
 <Airport
  city="Nyac"
  elev="460"
  id="ZNC"
  lat="60.981"
  lon="-159.994"
  name="Nyac"
  rwy="3650"
  state="AK"
  var="20.0"/>
 <Airport
  city="Old Harbor"
  elev="55"
  id="6R7"
  lat="57.218"
  lon="-153.270"
  name="Old Harbor"
  rwy="2750"
  state="AK"
  var="21.0"/>
 <Airport
  city="Ophir"
  elev="575"
  id="Z17"
  lat="63.146"
  lon="-156.530"
  name="Ophir"
  rwy="1940"
  state="AK"
  var="22.0"/>
 <Airport
  city="Ouzinkie"
  elev="55"
  id="4K5"
  lat="57.923"
  lon="-152.501"
  name="Ouzinkie"
  rwy="2085"
  state="AK"
  var="22.0"/>
 <Airport
  city="Palmer"
  elev="300"
  id="3AK6"
  lat="61.593"
  lon="-149.302"
  name="B &amp; B Boys Ranch"
  rwy="700"
  state="AK"
  var="25.0"/>
 <Airport
  city="Palmer"
  elev="572"
  id="4AK6"
  lat="61.641"
  lon="-149.289"
  name="Wolf Lake"
  rwy="3800"
  state="AK"
  var="20.4"/>
 <Airport
  city="Palmer"
  elev="425"
  id="34AK"
  lat="61.625"
  lon="-149.289"
  name="Cardwell Strip"
  rwy="1200"
  state="AK"
  var="26.0"/>
 <Airport
  city="Palmer"
  elev="410"
  id="3AK2"
  lat="61.627"
  lon="-149.287"
  name="Niklason Lake Estates"
  rwy="700"
  state="AK"
  var="24.0"/>
 <Airport
  city="Palmer"
  elev="535"
  id="AK93"
  lat="61.655"
  lon="-149.273"
  name="Grouse Ridge"
  rwy="1600"
  state="AK"
  var=""/>
 <Airport
  city="Palmer"
  elev="125"
  id="5AK6"
  lat="61.557"
  lon="-149.268"
  name="Colberg"
  rwy="1600"
  state="AK"
  var="25.0"/>
 <Airport
  city="Palmer"
  elev="720"
  id="97AK"
  lat="61.664"
  lon="-149.254"
  name="High Ridge Association"
  rwy="1800"
  state="AK"
  var=""/>
 <Airport
  city="Palmer"
  elev="300"
  id="14AK"
  lat="61.602"
  lon="-149.248"
  name="Four Corners"
  rwy="1300"
  state="AK"
  var="25.0"/>
 <Airport
  city="Palmer"
  elev="340"
  id="39AK"
  lat="61.586"
  lon="-149.236"
  name="Gilmore Strip"
  rwy="1200"
  state="AK"
  var="23.0"/>
 <Airport
  city="Palmer"
  elev="425"
  id="82AK"
  lat="61.617"
  lon="-149.191"
  name="Jim&apos;s Landing"
  rwy="1000"
  state="AK"
  var=""/>
 <Airport
  city="Palmer"
  elev="150"
  id="5AK9"
  lat="61.549"
  lon="-149.190"
  name="Grandview Subdivision"
  rwy="1000"
  state="AK"
  var="23.0"/>
 <Airport
  city="Palmer"
  elev="620"
  id="05AK"
  lat="61.669"
  lon="-149.187"
  name="Wasilla Creek Airpark"
  rwy="2000"
  state="AK"
  var="24.0"/>
 <Airport
  city="Palmer"
  elev="120"
  id="AK50"
  lat="61.555"
  lon="-149.144"
  name="Sky Ranch At Pioneer Peak"
  rwy="2000"
  state="AK"
  var="25.0"/>
 <Airport
  city="Palmer"
  elev="246"
  id="AK63"
  lat="61.589"
  lon="-149.143"
  name="Pat-Mar Strip"
  rwy="1800"
  state="AK"
  var="23.0"/>
 <Airport
  city="Palmer"
  elev="242"
  id="PAQ"
  lat="61.595"
  lon="-149.089"
  name="Palmer Muni"
  rwy="6008"
  state="AK"
  var="20.4"/>
 <Airport
  city="Palmer"
  elev="700"
  id="7AK9"
  lat="61.647"
  lon="-149.049"
  name="Vinduska"
  rwy="1400"
  state="AK"
  var="23.0"/>
 <Airport
  city="Palmer"
  elev="750"
  id="AK46"
  lat="61.629"
  lon="-149.043"
  name="Abi"
  rwy="1000"
  state="AK"
  var="24.0"/>
 <Airport
  city="Palmer"
  elev="416"
  id="AK88"
  lat="61.605"
  lon="-149.040"
  name="Eagle Nest"
  rwy="1300"
  state="AK"
  var=""/>
 <Airport
  city="Palmer"
  elev="820"
  id="AK92"
  lat="61.638"
  lon="-149.029"
  name="Martin"
  rwy="600"
  state="AK"
  var=""/>
 <Airport
  city="Palmer"
  elev="64"
  id="AK1"
  lat="61.530"
  lon="-149.018"
  name="Butte Muni"
  rwy="1806"
  state="AK"
  var="25.0"/>
 <Airport
  city="Palmer"
  elev="220"
  id="AK53"
  lat="61.582"
  lon="-148.997"
  name="Downwind Landing"
  rwy="1800"
  state="AK"
  var="24.0"/>
 <Airport
  city="Palmer"
  elev="100"
  id="AK66"
  lat="61.463"
  lon="-148.804"
  name="Hunter Creek"
  rwy="1150"
  state="AK"
  var="23.0"/>
 <Airport
  city="Paxson"
  elev="2653"
  id="PXK"
  lat="63.025"
  lon="-145.501"
  name="Paxson"
  rwy="1800"
  state="AK"
  var="28.0"/>
 <Airport
  city="Pedro Bay"
  elev="45"
  id="4K0"
  lat="59.790"
  lon="-154.124"
  name="Pedro Bay"
  rwy="3000"
  state="AK"
  var="22.0"/>
 <Airport
  city="Perryville"
  elev="24"
  id="PEV"
  lat="55.901"
  lon="-159.156"
  name="Perryville"
  rwy="2467"
  state="AK"
  var="15.1"/>
 <Airport
  city="Petersburg"
  elev="105"
  id="PSG"
  lat="56.802"
  lon="-132.945"
  name="Petersburg James A Johnson"
  rwy="6000"
  state="AK"
  var="22.2"/>
 <Airport
  city="Pilot Point"
  elev="132"
  id="UGB"
  lat="57.425"
  lon="-157.740"
  name="Ugashik Bay"
  rwy="5280"
  state="AK"
  var="20.0"/>
 <Airport
  city="Pilot Point"
  elev="57"
  id="PNP"
  lat="57.580"
  lon="-157.572"
  name="Pilot Point"
  rwy="3280"
  state="AK"
  var="16.1"/>
 <Airport
  city="Pilot Station"
  elev="305"
  id="0AK"
  lat="61.935"
  lon="-162.900"
  name="Pilot Station"
  rwy="2541"
  state="AK"
  var="18.0"/>
 <Airport
  city="Platinum"
  elev="15"
  id="PTU"
  lat="59.011"
  lon="-161.820"
  name="Platinum"
  rwy="3304"
  state="AK"
  var="14.3"/>
 <Airport
  city="Platinum"
  elev="100"
  id="6AK1"
  lat="58.912"
  lon="-161.714"
  name="Platinum Mine"
  rwy="2000"
  state="AK"
  var="18.0"/>
 <Airport
  city="Point Hope"
  elev="12"
  id="PHO"
  lat="68.349"
  lon="-166.799"
  name="Point Hope"
  rwy="4000"
  state="AK"
  var="13.4"/>
 <Airport
  city="Point Lay"
  elev="25"
  id="PIZ"
  lat="69.733"
  lon="-163.005"
  name="Point Lay Lrrs"
  rwy="3519"
  state="AK"
  var="16.2"/>
 <Airport
  city="Point Mackenzie"
  elev="300"
  id="AK36"
  lat="61.436"
  lon="-150.122"
  name="Point Mac"
  rwy="3000"
  state="AK"
  var="22.0"/>
 <Airport
  city="Point Mackenzie"
  elev="95"
  id="50AK"
  lat="61.380"
  lon="-150.116"
  name="Robin&apos;s Landing"
  rwy="2500"
  state="AK"
  var=""/>
 <Airport
  city="Point Mackenzie"
  elev="100"
  id="AK14"
  lat="61.353"
  lon="-150.083"
  name="Turinsky Airstrip"
  rwy="2000"
  state="AK"
  var=""/>
 <Airport
  city="Point Mackenzie"
  elev="110"
  id="0AK9"
  lat="61.333"
  lon="-150.059"
  name="Falcon Lake Strip"
  rwy="2000"
  state="AK"
  var=""/>
 <Airport
  city="Point Mackenzie"
  elev="175"
  id="64AK"
  lat="61.440"
  lon="-150.026"
  name="Carpentiers Strip"
  rwy="1200"
  state="AK"
  var="22.0"/>
 <Airport
  city="Point Mackenzie"
  elev="125"
  id="6AK2"
  lat="61.251"
  lon="-149.982"
  name="Sleepers Strip"
  rwy="1600"
  state="AK"
  var="25.0"/>
 <Airport
  city="Point Mackenzie"
  elev="120"
  id="2AK0"
  lat="61.256"
  lon="-149.975"
  name="Mac Kenzie Country Airpark"
  rwy="1400"
  state="AK"
  var=""/>
 <Airport
  city="Point Mcintyre"
  elev="15"
  id="AK11"
  lat="70.402"
  lon="-148.682"
  name="Point Mcintyre"
  rwy="1540"
  state="AK"
  var="30.0"/>
 <Airport
  city="Porcupine Creek"
  elev="1100"
  id="PCK"
  lat="67.238"
  lon="-150.286"
  name="Porcupine Creek"
  rwy="1040"
  state="AK"
  var="27.0"/>
 <Airport
  city="Port Alsworth"
  elev="288"
  id="AK51"
  lat="60.199"
  lon="-154.325"
  name="Wilder/Natwick Llc"
  rwy="4200"
  state="AK"
  var="20.0"/>
 <Airport
  city="Port Alsworth"
  elev="280"
  id="TPO"
  lat="60.204"
  lon="-154.319"
  name="Port Alsworth"
  rwy="3000"
  state="AK"
  var="22.0"/>
 <Airport
  city="Port Clarence"
  elev="10"
  id="KPC"
  lat="65.254"
  lon="-166.859"
  name="Port Clarence Cgs"
  rwy="4500"
  state="AK"
  var="12.6"/>
 <Airport
  city="Port Graham"
  elev="93"
  id="PGM"
  lat="59.348"
  lon="-151.832"
  name="Port Graham"
  rwy="1975"
  state="AK"
  var="23.0"/>
 <Airport
  city="Port Heiden"
  elev="95"
  id="PTH"
  lat="56.959"
  lon="-158.633"
  name="Port Heiden"
  rwy="5000"
  state="AK"
  var="15.4"/>
 <Airport
  city="Port Lions"
  elev="52"
  id="ORI"
  lat="57.885"
  lon="-152.846"
  name="Port Lions"
  rwy="2200"
  state="AK"
  var="22.0"/>
 <Airport
  city="Portage Creek"
  elev="137"
  id="A14"
  lat="58.906"
  lon="-157.714"
  name="Portage Creek"
  rwy="1920"
  state="AK"
  var="20.0"/>
 <Airport
  city="Prospect Creek"
  elev="1095"
  id="PPC"
  lat="66.814"
  lon="-150.644"
  name="Prospect Creek"
  rwy="4968"
  state="AK"
  var="21.0"/>
 <Airport
  city="Purkeypile"
  elev="1950"
  id="01A"
  lat="62.944"
  lon="-152.270"
  name="Purkeypile"
  rwy="1175"
  state="AK"
  var="24.0"/>
 <Airport
  city="Quail Creek"
  elev="1550"
  id="20K"
  lat="65.354"
  lon="-149.762"
  name="Quail Creek"
  rwy="1650"
  state="AK"
  var="27.0"/>
 <Airport
  city="Quartz Creek"
  elev="416"
  id="5QC"
  lat="65.406"
  lon="-164.656"
  name="Quartz Creek/Kougaro"
  rwy="2960"
  state="AK"
  var="18.0"/>
 <Airport
  city="Quinhagak"
  elev="42"
  id="AQH"
  lat="59.755"
  lon="-161.845"
  name="Quinhagak"
  rwy="4000"
  state="AK"
  var="14.0"/>
 <Airport
  city="Rainy Pass"
  elev="1900"
  id="6AK"
  lat="62.084"
  lon="-152.718"
  name="Rainy Pass Lodge"
  rwy="2100"
  state="AK"
  var="24.0"/>
 <Airport
  city="Rampart"
  elev="302"
  id="RMP"
  lat="65.508"
  lon="-150.141"
  name="Rampart"
  rwy="3500"
  state="AK"
  var="24.0"/>
 <Airport
  city="Red Devil"
  elev="174"
  id="RDV"
  lat="61.788"
  lon="-157.350"
  name="Red Devil"
  rwy="4801"
  state="AK"
  var="21.0"/>
 <Airport
  city="Red Dog"
  elev="974"
  id="DGG"
  lat="68.031"
  lon="-162.899"
  name="Red Dog"
  rwy="5454"
  state="AK"
  var="15.5"/>
 <Airport
  city="Ruby"
  elev="653"
  id="RBY"
  lat="64.727"
  lon="-155.470"
  name="Ruby"
  rwy="4000"
  state="AK"
  var="19.0"/>
 <Airport
  city="Russian Mission"
  elev="300"
  id="9AK2"
  lat="61.899"
  lon="-161.440"
  name="Kako"
  rwy="2600"
  state="AK"
  var="19.0"/>
 <Airport
  city="Russian Mission"
  elev="51"
  id="RSH"
  lat="61.775"
  lon="-161.319"
  name="Russian Mission"
  rwy="3600"
  state="AK"
  var="15.2"/>
 <Airport
  city="Salmon Lake"
  elev="490"
  id="Z81"
  lat="64.909"
  lon="-165.013"
  name="Salmon Lake"
  rwy="1860"
  state="AK"
  var="17.0"/>
 <Airport
  city="Sand Point"
  elev="21"
  id="SDP"
  lat="55.315"
  lon="-160.523"
  name="Sand Point"
  rwy="4000"
  state="AK"
  var="14.3"/>
 <Airport
  city="Savoonga"
  elev="53"
  id="SVA"
  lat="63.686"
  lon="-170.493"
  name="Savoonga"
  rwy="4400"
  state="AK"
  var="10.4"/>
 <Airport
  city="Scammon Bay"
  elev="14"
  id="SCM"
  lat="61.845"
  lon="-165.571"
  name="Scammon Bay"
  rwy="3000"
  state="AK"
  var="13.1"/>
 <Airport
  city="Selawik"
  elev="360"
  id="8AK3"
  lat="66.766"
  lon="-160.153"
  name="Roland Norton Memorial Airstrip"
  rwy="3000"
  state="AK"
  var="21.0"/>
 <Airport
  city="Selawik"
  elev="13"
  id="WLK"
  lat="66.600"
  lon="-159.986"
  name="Selawik"
  rwy="3002"
  state="AK"
  var="17.1"/>
 <Airport
  city="Seldovia"
  elev="29"
  id="SOV"
  lat="59.442"
  lon="-151.704"
  name="Seldovia"
  rwy="1845"
  state="AK"
  var="23.0"/>
 <Airport
  city="Seward"
  elev="22"
  id="SWD"
  lat="60.127"
  lon="-149.419"
  name="Seward"
  rwy="4240"
  state="AK"
  var="20.1"/>
 <Airport
  city="Shageluk"
  elev="79"
  id="SHX"
  lat="62.692"
  lon="-159.569"
  name="Shageluk"
  rwy="5000"
  state="AK"
  var="15.0"/>
 <Airport
  city="Shaktoolik"
  elev="24"
  id="2C7"
  lat="64.371"
  lon="-161.224"
  name="Shaktoolik"
  rwy="4001"
  state="AK"
  var="20.0"/>
 <Airport
  city="Sheep Mountain"
  elev="2750"
  id="SMU"
  lat="61.812"
  lon="-147.507"
  name="Sheep Mountain"
  rwy="2270"
  state="AK"
  var="26.0"/>
 <Airport
  city="Sheldon Point"
  elev="12"
  id="SXP"
  lat="62.521"
  lon="-164.848"
  name="Sheldon Point"
  rwy="15000"
  state="AK"
  var="17.0"/>
 <Airport
  city="Shemya"
  elev="98"
  id="SYA"
  lat="52.712"
  lon="174.114"
  name="Eareckson As"
  rwy="10000"
  state="AK"
  var="1.4"/>
 <Airport
  city="Shishmaref"
  elev="12"
  id="SHH"
  lat="66.250"
  lon="-166.089"
  name="Shishmaref"
  rwy="5000"
  state="AK"
  var="13.4"/>
 <Airport
  city="Shungnak"
  elev="197"
  id="SHG"
  lat="66.888"
  lon="-157.162"
  name="Shungnak"
  rwy="4000"
  state="AK"
  var="18.5"/>
 <Airport
  city="Sitka"
  elev="21"
  id="SIT"
  lat="57.047"
  lon="-135.362"
  name="Sitka Rocky Gutierrez"
  rwy="6500"
  state="AK"
  var="22.2"/>
 <Airport
  city="Skagway"
  elev="44"
  id="SGY"
  lat="59.460"
  lon="-135.316"
  name="Skagway"
  rwy="3550"
  state="AK"
  var="23.2"/>
 <Airport
  city="Sketna"
  elev="282"
  id="1AK6"
  lat="61.853"
  lon="-151.408"
  name="Talachulitna River"
  rwy="1800"
  state="AK"
  var="23.0"/>
 <Airport
  city="Skwentna"
  elev="610"
  id="1AK8"
  lat="61.677"
  lon="-151.387"
  name="Talaheim"
  rwy="950"
  state="AK"
  var=""/>
 <Airport
  city="Skwentna"
  elev="148"
  id="SKW"
  lat="61.965"
  lon="-151.191"
  name="Skwentna"
  rwy="3400"
  state="AK"
  var="25.0"/>
 <Airport
  city="Skwentna"
  elev="170"
  id="3AK9"
  lat="61.942"
  lon="-151.036"
  name="River John"
  rwy="1850"
  state="AK"
  var=""/>
 <Airport
  city="Slana"
  elev="2420"
  id="DDT"
  lat="62.725"
  lon="-143.921"
  name="Duffys Tavern"
  rwy="1200"
  state="AK"
  var="28.0"/>
 <Airport
  city="Sleetmute"
  elev="190"
  id="SLQ"
  lat="61.701"
  lon="-157.166"
  name="Sleetmute"
  rwy="3100"
  state="AK"
  var="21.0"/>
 <Airport
  city="Snettisham"
  elev="14"
  id="7AK2"
  lat="58.134"
  lon="-133.730"
  name="Snettisham"
  rwy="3000"
  state="AK"
  var="28.0"/>
 <Airport
  city="Soldotna"
  elev="115"
  id="7AK3"
  lat="60.476"
  lon="-151.166"
  name="Gaede"
  rwy="2712"
  state="AK"
  var="24.0"/>
 <Airport
  city="Soldotna"
  elev="113"
  id="SXQ"
  lat="60.476"
  lon="-151.034"
  name="Soldotna"
  rwy="5000"
  state="AK"
  var="19.4"/>
 <Airport
  city="Soldotna"
  elev="250"
  id="70AK"
  lat="60.518"
  lon="-150.960"
  name="Bangerter Field"
  rwy="2800"
  state="AK"
  var=""/>
 <Airport
  city="Soldotna"
  elev="300"
  id="7AK5"
  lat="60.504"
  lon="-150.936"
  name="Dahler Homestead"
  rwy="1400"
  state="AK"
  var="24.0"/>
 <Airport
  city="Soldotna"
  elev="260"
  id="7AK6"
  lat="60.478"
  lon="-150.929"
  name="Dan France"
  rwy="1690"
  state="AK"
  var="24.0"/>
 <Airport
  city="Soldotna"
  elev="290"
  id="AK55"
  lat="60.489"
  lon="-150.802"
  name="Moose Run Airstrip"
  rwy="2000"
  state="AK"
  var="22.0"/>
 <Airport
  city="Soldotna"
  elev="200"
  id="1AK4"
  lat="60.524"
  lon="-150.752"
  name="Kenai River Airpark"
  rwy="2100"
  state="AK"
  var="24.0"/>
 <Airport
  city="Solomon"
  elev="25"
  id="AK26"
  lat="64.561"
  lon="-164.442"
  name="Solomon State Field"
  rwy="1150"
  state="AK"
  var="18.0"/>
 <Airport
  city="South Naknek"
  elev="162"
  id="WSN"
  lat="58.702"
  lon="-157.003"
  name="South Naknek Nr 2"
  rwy="3314"
  state="AK"
  var="21.0"/>
 <Airport
  city="Sparrevohn"
  elev="1583"
  id="SVW"
  lat="61.097"
  lon="-155.574"
  name="Sparrevohn Lrrs"
  rwy="4100"
  state="AK"
  var="17.6"/>
 <Airport
  city="St George"
  elev="125"
  id="PBV"
  lat="56.578"
  lon="-169.662"
  name="St George"
  rwy="5000"
  state="AK"
  var="10.2"/>
 <Airport
  city="St Mary&apos;s"
  elev="311"
  id="KSM"
  lat="62.060"
  lon="-163.302"
  name="St Marys"
  rwy="6003"
  state="AK"
  var="14.2"/>
 <Airport
  city="St Michael"
  elev="93"
  id="SMK"
  lat="63.490"
  lon="-162.110"
  name="St Michael"
  rwy="4001"
  state="AK"
  var="15.2"/>
 <Airport
  city="St Paul Island"
  elev="63"
  id="SNP"
  lat="57.167"
  lon="-170.220"
  name="St Paul Island"
  rwy="6500"
  state="AK"
  var="10.0"/>
 <Airport
  city="Stebbins"
  elev="14"
  id="WBB"
  lat="63.516"
  lon="-162.278"
  name="Stebbins"
  rwy="3000"
  state="AK"
  var="19.0"/>
 <Airport
  city="Sterling"
  elev="110"
  id="53AK"
  lat="60.534"
  lon="-150.939"
  name="Lakewood Airstrip"
  rwy="1200"
  state="AK"
  var="23.0"/>
 <Airport
  city="Sterling"
  elev="300"
  id="88AK"
  lat="60.540"
  lon="-150.868"
  name="Dutch Landing Strip"
  rwy="1300"
  state="AK"
  var="23.0"/>
 <Airport
  city="Sterling"
  elev="90"
  id="40AK"
  lat="60.555"
  lon="-150.843"
  name="Sterling Air Park"
  rwy="1500"
  state="AK"
  var="23.0"/>
 <Airport
  city="Sterling"
  elev="259"
  id="AK84"
  lat="60.529"
  lon="-150.831"
  name="Scooter&apos;s Landing Strip"
  rwy="2400"
  state="AK"
  var=""/>
 <Airport
  city="Sterling"
  elev="320"
  id="AK01"
  lat="60.529"
  lon="-150.625"
  name="Alaska Airpark"
  rwy="1750"
  state="AK"
  var=""/>
 <Airport
  city="Sterling"
  elev="365"
  id="AK05"
  lat="60.541"
  lon="-150.599"
  name="Breeden"
  rwy="800"
  state="AK"
  var=""/>
 <Airport
  city="Sterling"
  elev="381"
  id="AK39"
  lat="60.697"
  lon="-150.180"
  name="South Gasline"
  rwy="2500"
  state="AK"
  var="25.0"/>
 <Airport
  city="Stevens Village"
  elev="329"
  id="SVS"
  lat="66.017"
  lon="-149.054"
  name="Stevens Village"
  rwy="4000"
  state="AK"
  var="22.0"/>
 <Airport
  city="Stony River"
  elev="230"
  id="SRV"
  lat="61.790"
  lon="-156.589"
  name="Stony River 2"
  rwy="2601"
  state="AK"
  var="22.0"/>
 <Airport
  city="Summit"
  elev="2409"
  id="UMM"
  lat="63.331"
  lon="-149.127"
  name="Summit"
  rwy="3840"
  state="AK"
  var="26.0"/>
 <Airport
  city="Susitna Station"
  elev="70"
  id="8AK6"
  lat="61.372"
  lon="-150.262"
  name="Little Susitna"
  rwy="2600"
  state="AK"
  var="25.0"/>
 <Airport
  city="Sutton"
  elev="870"
  id="JVM"
  lat="61.731"
  lon="-148.928"
  name="Jonesville Mine"
  rwy="1450"
  state="AK"
  var="26.0"/>
 <Airport
  city="Sutton"
  elev="1350"
  id="AK59"
  lat="61.791"
  lon="-148.352"
  name="King Ranch"
  rwy="1800"
  state="AK"
  var="23.0"/>
 <Airport
  city="Sutton"
  elev="1875"
  id="28AK"
  lat="61.809"
  lon="-147.859"
  name="Farrars"
  rwy="2175"
  state="AK"
  var="26.0"/>
 <Airport
  city="Sutton/Chickaloon"
  elev="1010"
  id="48AK"
  lat="61.793"
  lon="-148.492"
  name="Graham"
  rwy="1320"
  state="AK"
  var="26.0"/>
 <Airport
  city="Takotna"
  elev="825"
  id="TCT"
  lat="62.993"
  lon="-156.068"
  name="Takotna"
  rwy="1717"
  state="AK"
  var="22.0"/>
 <Airport
  city="Takotna"
  elev="964"
  id="TLJ"
  lat="62.894"
  lon="-155.977"
  name="Tatalina Lrrs"
  rwy="3800"
  state="AK"
  var="18.1"/>
 <Airport
  city="Talkeetna"
  elev="825"
  id="3AK3"
  lat="62.564"
  lon="-150.220"
  name="Songlo Vista"
  rwy="2100"
  state="AK"
  var="23.0"/>
 <Airport
  city="Talkeetna"
  elev="346"
  id="AK44"
  lat="62.319"
  lon="-150.116"
  name="Talkeetna Village Strip"
  rwy="1600"
  state="AK"
  var="25.0"/>
 <Airport
  city="Talkeetna"
  elev="358"
  id="TKA"
  lat="62.320"
  lon="-150.094"
  name="Talkeetna"
  rwy="3500"
  state="AK"
  var="20.4"/>
 <Airport
  city="Talkeetna"
  elev="250"
  id="21AK"
  lat="62.072"
  lon="-150.069"
  name="Montana Creek"
  rwy="2300"
  state="AK"
  var="25.0"/>
 <Airport
  city="Talkeetna"
  elev="400"
  id="51AK"
  lat="62.242"
  lon="-150.066"
  name="Birch Creek Landing"
  rwy="2550"
  state="AK"
  var=""/>
 <Airport
  city="Talkeetna"
  elev="300"
  id="AK19"
  lat="62.174"
  lon="-150.064"
  name="Carl&apos;s Landing"
  rwy="2500"
  state="AK"
  var=""/>
 <Airport
  city="Talkeetna"
  elev="300"
  id="49AK"
  lat="62.024"
  lon="-149.977"
  name="Secluded Lake"
  rwy="2800"
  state="AK"
  var="25.0"/>
 <Airport
  city="Talkeetna"
  elev="1670"
  id="AA00"
  lat="62.510"
  lon="-149.927"
  name="Shump"
  rwy="650"
  state="AK"
  var=""/>
 <Airport
  city="Talkeetna"
  elev="3600"
  id="2AK7"
  lat="62.307"
  lon="-149.752"
  name="Bald Mountain"
  rwy="1000"
  state="AK"
  var="23.0"/>
 <Airport
  city="Talkeetna"
  elev="1900"
  id="AK61"
  lat="62.700"
  lon="-148.907"
  name="Stephan Lake Lodge"
  rwy="750"
  state="AK"
  var=""/>
 <Airport
  city="Tanacross"
  elev="1549"
  id="TSG"
  lat="63.374"
  lon="-143.336"
  name="Tanacross"
  rwy="5100"
  state="AK"
  var="23.3"/>
 <Airport
  city="Tanana"
  elev="227"
  id="TAL"
  lat="65.174"
  lon="-152.109"
  name="Ralph M Calhoun Mem"
  rwy="4400"
  state="AK"
  var="20.5"/>
 <Airport
  city="Tanana"
  elev="193"
  id="7AK0"
  lat="64.647"
  lon="-151.810"
  name="Art Z"
  rwy="2000"
  state="AK"
  var=""/>
 <Airport
  city="Tatitlek"
  elev="62"
  id="7KA"
  lat="60.872"
  lon="-146.691"
  name="Tatitlek"
  rwy="8000"
  state="AK"
  var="26.0"/>
 <Airport
  city="Tatitna"
  elev="1490"
  id="8KA"
  lat="62.293"
  lon="-153.362"
  name="Tatitna"
  rwy="1200"
  state="AK"
  var="24.0"/>
 <Airport
  city="Taylor"
  elev="440"
  id="AK49"
  lat="65.679"
  lon="-164.799"
  name="Taylor"
  rwy="2200"
  state="AK"
  var="17.0"/>
 <Airport
  city="Taylor Mountain Mine"
  elev="1000"
  id="AK64"
  lat="60.868"
  lon="-157.392"
  name="Taylor Mountain"
  rwy="1950"
  state="AK"
  var="20.0"/>
 <Airport
  city="Tazlina"
  elev="2450"
  id="Z14"
  lat="62.065"
  lon="-146.461"
  name="Tazlina"
  rwy="900"
  state="AK"
  var="27.0"/>
 <Airport
  city="Telida"
  elev="650"
  id="2K5"
  lat="63.394"
  lon="-153.269"
  name="Telida"
  rwy="1900"
  state="AK"
  var="24.0"/>
 <Airport
  city="Teller"
  elev="294"
  id="TER"
  lat="65.240"
  lon="-166.339"
  name="Teller"
  rwy="3000"
  state="AK"
  var="13.2"/>
 <Airport
  city="Tetlin"
  elev="1663"
  id="3T4"
  lat="63.125"
  lon="-142.518"
  name="Tetlin"
  rwy="3300"
  state="AK"
  var=""/>
 <Airport
  city="Thompson Pass"
  elev="2080"
  id="K55"
  lat="61.177"
  lon="-145.688"
  name="Thompson Pass"
  rwy="2530"
  state="AK"
  var="27.0"/>
 <Airport
  city="Tin City"
  elev="271"
  id="TNC"
  lat="65.563"
  lon="-167.922"
  name="Tin City Lrrs"
  rwy="4700"
  state="AK"
  var="12.2"/>
 <Airport
  city="Togiak Village"
  elev="21"
  id="TOG"
  lat="59.053"
  lon="-160.397"
  name="Togiak"
  rwy="4400"
  state="AK"
  var="15.1"/>
 <Airport
  city="Tok"
  elev="3120"
  id="9AK0"
  lat="62.512"
  lon="-143.235"
  name="Sports Mans Paradise"
  rwy="1040"
  state="AK"
  var="28.0"/>
 <Airport
  city="Tok"
  elev="1630"
  id="8AK9"
  lat="63.300"
  lon="-143.023"
  name="Tok 2"
  rwy="2035"
  state="AK"
  var="29.0"/>
 <Airport
  city="Tok"
  elev="1640"
  id="6K8"
  lat="63.330"
  lon="-142.954"
  name="Tok Junction"
  rwy="2509"
  state="AK"
  var="23.3"/>
 <Airport
  city="Toksook Bay"
  elev="59"
  id="OOK"
  lat="60.541"
  lon="-165.087"
  name="Toksook Bay"
  rwy="3218"
  state="AK"
  var="13.1"/>
 <Airport
  city="Totatlanika River"
  elev="2717"
  id="9AK"
  lat="64.026"
  lon="-148.522"
  name="Totatlanika River"
  rwy="780"
  state="AK"
  var="27.0"/>
 <Airport
  city="Trading Bay"
  elev="200"
  id="5AK0"
  lat="60.816"
  lon="-151.799"
  name="Trading Bay Production"
  rwy="4500"
  state="AK"
  var="24.0"/>
 <Airport
  city="Trapper Creek"
  elev="600"
  id="81AK"
  lat="62.568"
  lon="-150.236"
  name="Mc Kinley Country"
  rwy="1650"
  state="AK"
  var=""/>
 <Airport
  city="Tuluksak"
  elev="30"
  id="TLT"
  lat="61.097"
  lon="-160.969"
  name="Tuluksak"
  rwy="2461"
  state="AK"
  var="19.0"/>
 <Airport
  city="Tuntutuliak"
  elev="16"
  id="A61"
  lat="60.335"
  lon="-162.667"
  name="Tuntutuliak"
  rwy="3025"
  state="AK"
  var="18.0"/>
 <Airport
  city="Tununak"
  elev="14"
  id="4KA"
  lat="60.576"
  lon="-165.272"
  name="Tununak"
  rwy="1778"
  state="AK"
  var="16.0"/>
 <Airport
  city="Twin Hills"
  elev="82"
  id="A63"
  lat="59.075"
  lon="-160.275"
  name="Twin Hills"
  rwy="3000"
  state="AK"
  var="19.0"/>
 <Airport
  city="Tyonek"
  elev="30"
  id="9AK3"
  lat="61.014"
  lon="-151.449"
  name="Nikolai Creek"
  rwy="4100"
  state="AK"
  var="24.0"/>
 <Airport
  city="Tyonek"
  elev="110"
  id="TYE"
  lat="61.077"
  lon="-151.138"
  name="Tyonek"
  rwy="3000"
  state="AK"
  var="24.0"/>
 <Airport
  city="Ugashik"
  elev="25"
  id="9A8"
  lat="57.523"
  lon="-157.396"
  name="Ugashik"
  rwy="3100"
  state="AK"
  var="20.0"/>
 <Airport
  city="Umiat"
  elev="266"
  id="UMT"
  lat="69.371"
  lon="-152.135"
  name="Umiat"
  rwy="5583"
  state="AK"
  var="21.0"/>
 <Airport
  city="Unalakleet"
  elev="21"
  id="UNK"
  lat="63.888"
  lon="-160.799"
  name="Unalakleet"
  rwy="6004"
  state="AK"
  var="16.0"/>
 <Airport
  city="Unalaska"
  elev="22"
  id="DUT"
  lat="53.900"
  lon="-166.543"
  name="Unalaska"
  rwy="3800"
  state="AK"
  var="11.3"/>
 <Airport
  city="Utopia Creek"
  elev="1220"
  id="UTO"
  lat="65.993"
  lon="-153.704"
  name="Indian Mountain Lrrs"
  rwy="4100"
  state="AK"
  var="20.2"/>
 <Airport
  city="Valdez"
  elev="118"
  id="VDZ"
  lat="61.134"
  lon="-146.248"
  name="Valdez Pioneer Fld"
  rwy="6508"
  state="AK"
  var="21.4"/>
 <Airport
  city="Venetie"
  elev="574"
  id="VEE"
  lat="67.009"
  lon="-146.366"
  name="Venetie"
  rwy="4000"
  state="AK"
  var="22.0"/>
 <Airport
  city="Victory Bible Camp"
  elev="1800"
  id="0AK6"
  lat="61.803"
  lon="-147.944"
  name="Victory"
  rwy="1700"
  state="AK"
  var="26.0"/>
 <Airport
  city="Wainwright"
  elev="41"
  id="AWI"
  lat="70.638"
  lon="-159.995"
  name="Wainwright"
  rwy="4494"
  state="AK"
  var="18.2"/>
 <Airport
  city="Wainwright"
  elev="35"
  id="AK03"
  lat="70.613"
  lon="-159.860"
  name="Wainwright As"
  rwy="3000"
  state="AK"
  var="18.3"/>
 <Airport
  city="Wales"
  elev="22"
  id="IWK"
  lat="65.623"
  lon="-168.095"
  name="Wales"
  rwy="4000"
  state="AK"
  var="12.2"/>
 <Airport
  city="Wasilla"
  elev="230"
  id="44AK"
  lat="61.533"
  lon="-150.102"
  name="West Papoose Lake Airpark"
  rwy="1600"
  state="AK"
  var="25.0"/>
 <Airport
  city="Wasilla"
  elev="150"
  id="36AK"
  lat="61.343"
  lon="-150.067"
  name="Flyway Farm Airstrip"
  rwy="2100"
  state="AK"
  var="22.0"/>
 <Airport
  city="Wasilla"
  elev="110"
  id="AK85"
  lat="61.482"
  lon="-149.764"
  name="Birchwater"
  rwy="800"
  state="AK"
  var=""/>
 <Airport
  city="Wasilla"
  elev="85"
  id="AK99"
  lat="61.447"
  lon="-149.761"
  name="Grand Home"
  rwy="1200"
  state="AK"
  var=""/>
 <Airport
  city="Wasilla"
  elev="120"
  id="79AK"
  lat="61.482"
  lon="-149.744"
  name="Huttunen Strip"
  rwy="1500"
  state="AK"
  var=""/>
 <Airport
  city="Wasilla"
  elev="303"
  id="AK16"
  lat="61.523"
  lon="-149.715"
  name="Sunset Strip"
  rwy="1600"
  state="AK"
  var=""/>
 <Airport
  city="Wasilla"
  elev="250"
  id="89AK"
  lat="61.559"
  lon="-149.705"
  name="Lincoln Village Airpark"
  rwy="2000"
  state="AK"
  var="24.0"/>
 <Airport
  city="Wasilla"
  elev="200"
  id="55AK"
  lat="61.496"
  lon="-149.699"
  name="Lawrence Airstrip"
  rwy="1700"
  state="AK"
  var="22.0"/>
 <Airport
  city="Wasilla"
  elev="350"
  id="8AK8"
  lat="61.630"
  lon="-149.683"
  name="North Cubs Strip"
  rwy="1500"
  state="AK"
  var="22.0"/>
 <Airport
  city="Wasilla"
  elev="300"
  id="6AK9"
  lat="61.633"
  lon="-149.682"
  name="Cizek North"
  rwy="1320"
  state="AK"
  var="22.0"/>
 <Airport
  city="Wasilla"
  elev="90"
  id="9AK8"
  lat="61.625"
  lon="-149.682"
  name="Wolf Track"
  rwy="2000"
  state="AK"
  var="22.0"/>
 <Airport
  city="Wasilla"
  elev="200"
  id="10AK"
  lat="61.592"
  lon="-149.678"
  name="Hunt Strip"
  rwy="800"
  state="AK"
  var="24.0"/>
 <Airport
  city="Wasilla"
  elev="375"
  id="67AK"
  lat="61.535"
  lon="-149.670"
  name="South Hollywood"
  rwy="2640"
  state="AK"
  var=""/>
 <Airport
  city="Wasilla"
  elev="350"
  id="6AK8"
  lat="61.618"
  lon="-149.669"
  name="Tulakes"
  rwy="1200"
  state="AK"
  var="22.0"/>
 <Airport
  city="Wasilla"
  elev="340"
  id="38AK"
  lat="61.562"
  lon="-149.668"
  name="Mels"
  rwy="1500"
  state="AK"
  var="22.0"/>
 <Airport
  city="Wasilla"
  elev="366"
  id="9AK6"
  lat="61.624"
  lon="-149.648"
  name="Leisurewood Airstrip Owners Assoc"
  rwy="1600"
  state="AK"
  var="22.0"/>
 <Airport
  city="Wasilla"
  elev="75"
  id="41AK"
  lat="61.501"
  lon="-149.640"
  name="Settlers Bay Airstrip"
  rwy="1900"
  state="AK"
  var="25.0"/>
 <Airport
  city="Wasilla"
  elev="270"
  id="6AK7"
  lat="61.575"
  lon="-149.635"
  name="Rainbow Heights Estates Airstrip"
  rwy="2000"
  state="AK"
  var="22.0"/>
 <Airport
  city="Wasilla"
  elev="400"
  id="AK27"
  lat="61.643"
  lon="-149.624"
  name="Valley Flying Crown"
  rwy="1800"
  state="AK"
  var="22.0"/>
 <Airport
  city="Wasilla"
  elev="355"
  id="7AK8"
  lat="61.621"
  lon="-149.615"
  name="Hess"
  rwy="1300"
  state="AK"
  var="25.0"/>
 <Airport
  city="Wasilla"
  elev="350"
  id="AK25"
  lat="61.617"
  lon="-149.615"
  name="Piper Landing"
  rwy="1200"
  state="AK"
  var="24.0"/>
 <Airport
  city="Wasilla"
  elev="380"
  id="AK83"
  lat="61.627"
  lon="-149.609"
  name="Gannon&apos;s Landing"
  rwy="2100"
  state="AK"
  var="24.0"/>
 <Airport
  city="Wasilla"
  elev="300"
  id="56AK"
  lat="61.575"
  lon="-149.606"
  name="Bechtol Field"
  rwy="1570"
  state="AK"
  var="22.0"/>
 <Airport
  city="Wasilla"
  elev="80"
  id="77AK"
  lat="61.503"
  lon="-149.596"
  name="Tidewater Bluffs"
  rwy="1700"
  state="AK"
  var=""/>
 <Airport
  city="Wasilla"
  elev="445"
  id="43AK"
  lat="61.601"
  lon="-149.579"
  name="Kalmbach"
  rwy="2800"
  state="AK"
  var="25.0"/>
 <Airport
  city="Wasilla"
  elev="425"
  id="06AK"
  lat="61.628"
  lon="-149.575"
  name="June Lake Airpark"
  rwy="2000"
  state="AK"
  var=""/>
 <Airport
  city="Wasilla"
  elev="100"
  id="AK79"
  lat="61.594"
  lon="-149.566"
  name="Jolly Field"
  rwy="1300"
  state="AK"
  var=""/>
 <Airport
  city="Wasilla"
  elev="300"
  id="AK47"
  lat="61.586"
  lon="-149.563"
  name="Shawn Field"
  rwy="1100"
  state="AK"
  var="22.0"/>
 <Airport
  city="Wasilla"
  elev="73"
  id="AK58"
  lat="61.540"
  lon="-149.549"
  name="Fairview West"
  rwy="2800"
  state="AK"
  var="22.0"/>
 <Airport
  city="Wasilla"
  elev="354"
  id="IYS"
  lat="61.572"
  lon="-149.540"
  name="Wasilla"
  rwy="3700"
  state="AK"
  var="20.3"/>
 <Airport
  city="Wasilla"
  elev="150"
  id="7AK4"
  lat="61.672"
  lon="-149.504"
  name="Jack Fish Landing"
  rwy="1915"
  state="AK"
  var="25.0"/>
 <Airport
  city="Wasilla"
  elev="110"
  id="71AK"
  lat="61.528"
  lon="-149.496"
  name="Bluff Park Farm"
  rwy="2000"
  state="AK"
  var="24.0"/>
 <Airport
  city="Wasilla"
  elev="314"
  id="42AK"
  lat="61.569"
  lon="-149.485"
  name="Wicker"
  rwy="1400"
  state="AK"
  var="25.0"/>
 <Airport
  city="Wasilla"
  elev="400"
  id="5AK5"
  lat="61.657"
  lon="-149.462"
  name="Todds Strip"
  rwy="2000"
  state="AK"
  var="23.0"/>
 <Airport
  city="Wasilla"
  elev="420"
  id="5AK8"
  lat="61.631"
  lon="-149.432"
  name="Memory Lake"
  rwy="1000"
  state="AK"
  var="25.0"/>
 <Airport
  city="Wasilla"
  elev="250"
  id="4AK2"
  lat="61.558"
  lon="-149.424"
  name="St John Homestead"
  rwy="900"
  state="AK"
  var="23.0"/>
 <Airport
  city="Wasilla"
  elev="400"
  id="3AK8"
  lat="61.663"
  lon="-149.392"
  name="Boisselle&apos;s Strip"
  rwy="1320"
  state="AK"
  var="24.0"/>
 <Airport
  city="Wasilla"
  elev="285"
  id="65AK"
  lat="61.561"
  lon="-149.369"
  name="Mcdonald Ridge"
  rwy="2700"
  state="AK"
  var="23.0"/>
 <Airport
  city="Wasilla"
  elev="300"
  id="AK65"
  lat="61.598"
  lon="-149.351"
  name="Green&apos;s Strip"
  rwy="1300"
  state="AK"
  var="24.0"/>
 <Airport
  city="Wasilla"
  elev="320"
  id="16AK"
  lat="61.599"
  lon="-149.347"
  name="Gattis Strip"
  rwy="1200"
  state="AK"
  var="24.0"/>
 <Airport
  city="Wasilla"
  elev="520"
  id="59AK"
  lat="61.632"
  lon="-149.341"
  name="Penderosa"
  rwy="1500"
  state="AK"
  var="23.0"/>
 <Airport
  city="Wasilla"
  elev="100"
  id="58AK"
  lat="61.553"
  lon="-149.340"
  name="Fairview East"
  rwy="3578"
  state="AK"
  var="23.0"/>
 <Airport
  city="Wasilla"
  elev="340"
  id="AK54"
  lat="61.593"
  lon="-149.326"
  name="Stro&apos;s"
  rwy="900"
  state="AK"
  var="23.0"/>
 <Airport
  city="Wasilla"
  elev="463"
  id="0AK1"
  lat="61.617"
  lon="-149.322"
  name="Anderson Lake"
  rwy="3000"
  state="AK"
  var="25.0"/>
 <Airport
  city="Wasilla"
  elev="340"
  id="23AK"
  lat="61.594"
  lon="-149.311"
  name="Yuknis"
  rwy="1100"
  state="AK"
  var="23.0"/>
 <Airport
  city="Wasilla"
  elev="545"
  id="87AK"
  lat="61.652"
  lon="-149.288"
  name="Soloy Strip"
  rwy="1100"
  state="AK"
  var="24.0"/>
 <Airport
  city="White Mountain"
  elev="267"
  id="WMO"
  lat="64.689"
  lon="-163.413"
  name="White Mountain"
  rwy="3000"
  state="AK"
  var="18.0"/>
 <Airport
  city="Whittier"
  elev="30"
  id="IEM"
  lat="60.777"
  lon="-148.722"
  name="Whittier"
  rwy="1480"
  state="AK"
  var="25.0"/>
 <Airport
  city="Willow"
  elev="81"
  id="0AK2"
  lat="61.726"
  lon="-150.679"
  name="Yentna Bend Strip"
  rwy="1000"
  state="AK"
  var=""/>
 <Airport
  city="Willow"
  elev="113"
  id="AK72"
  lat="61.705"
  lon="-150.601"
  name="Jewell"
  rwy="1950"
  state="AK"
  var="25.0"/>
 <Airport
  city="Willow"
  elev="160"
  id="78AK"
  lat="61.733"
  lon="-150.526"
  name="C.t.s."
  rwy="1300"
  state="AK"
  var=""/>
 <Airport
  city="Willow"
  elev="100"
  id="3AK7"
  lat="61.766"
  lon="-150.339"
  name="Laub"
  rwy="1080"
  state="AK"
  var="25.0"/>
 <Airport
  city="Willow"
  elev="110"
  id="3AK1"
  lat="61.719"
  lon="-150.196"
  name="Deshka Landing"
  rwy="2300"
  state="AK"
  var="24.0"/>
 <Airport
  city="Willow"
  elev="185"
  id="AK90"
  lat="61.745"
  lon="-150.115"
  name="Shirley Lake"
  rwy="1800"
  state="AK"
  var="25.0"/>
 <Airport
  city="Willow"
  elev="210"
  id="AK10"
  lat="61.717"
  lon="-150.109"
  name="Ernies Airstrip"
  rwy="1875"
  state="AK"
  var=""/>
 <Airport
  city="Willow"
  elev="190"
  id="AK08"
  lat="61.790"
  lon="-150.106"
  name="Thomas Strip"
  rwy="1650"
  state="AK"
  var="24.0"/>
 <Airport
  city="Willow"
  elev="200"
  id="AK69"
  lat="61.729"
  lon="-150.098"
  name="Long Lake"
  rwy="1800"
  state="AK"
  var="22.0"/>
 <Airport
  city="Willow"
  elev="190"
  id="02AK"
  lat="61.877"
  lon="-150.098"
  name="Rustic Wilderness"
  rwy="2200"
  state="AK"
  var="25.0"/>
 <Airport
  city="Willow"
  elev="64"
  id="AK67"
  lat="61.739"
  lon="-150.073"
  name="Skid Marks"
  rwy="1400"
  state="AK"
  var="22.0"/>
 <Airport
  city="Willow"
  elev="200"
  id="25AK"
  lat="61.712"
  lon="-150.063"
  name="Honeybee Lake Aero Park"
  rwy="2000"
  state="AK"
  var="24.0"/>
 <Airport
  city="Willow"
  elev="290"
  id="AK68"
  lat="61.720"
  lon="-150.054"
  name="Minuteman Strip"
  rwy="1200"
  state="AK"
  var="22.0"/>
 <Airport
  city="Willow"
  elev="221"
  id="UUO"
  lat="61.754"
  lon="-150.052"
  name="Willow"
  rwy="4400"
  state="AK"
  var="20.3"/>
 <Airport
  city="Wiseman"
  elev="1180"
  id="WSM"
  lat="67.405"
  lon="-150.123"
  name="Wiseman"
  rwy="2000"
  state="AK"
  var="28.0"/>
 <Airport
  city="Wrangell"
  elev="44"
  id="WRG"
  lat="56.484"
  lon="-132.370"
  name="Wrangell"
  rwy="5999"
  state="AK"
  var="22.1"/>
 <Airport
  city="Yakataga"
  elev="12"
  id="CYT"
  lat="60.082"
  lon="-142.493"
  name="Yakataga"
  rwy="4350"
  state="AK"
  var="27.0"/>
 <Airport
  city="Yakutat"
  elev="33"
  id="YAK"
  lat="59.503"
  lon="-139.660"
  name="Yakutat"
  rwy="7745"
  state="AK"
  var="22.4"/>
 <Airport
  city="Yakutat"
  elev="50"
  id="A68"
  lat="59.552"
  lon="-139.509"
  name="Situk"
  rwy="2150"
  state="AK"
  var="28.0"/>
 <Airport
  city="Yakutat"
  elev="50"
  id="A70"
  lat="59.405"
  lon="-139.233"
  name="Dangerous River"
  rwy="1800"
  state="AK"
  var="28.0"/>
 <Airport
  city="Yakutat"
  elev="100"
  id="A67"
  lat="59.414"
  lon="-139.025"
  name="Harlequin Lake"
  rwy="2000"
  state="AK"
  var="28.0"/>
 <Airport
  city="Yakutat"
  elev="130"
  id="A69"
  lat="59.248"
  lon="-138.504"
  name="Tanis Mesa"
  rwy="1800"
  state="AK"
  var="28.0"/>
 <Airport
  city="Yakutat"
  elev="30"
  id="A57"
  lat="59.199"
  lon="-138.451"
  name="Alsek River"
  rwy="1860"
  state="AK"
  var="28.0"/>
 <Airport
  city="Yakutat"
  elev="20"
  id="AK76"
  lat="59.126"
  lon="-138.407"
  name="East Alsek River"
  rwy="1500"
  state="AK"
  var="28.0"/>
 <Airport
  city="Yankee Creek"
  elev="1120"
  id="A77"
  lat="63.002"
  lon="-156.367"
  name="Yankee Creek 2"
  rwy="1560"
  state="AK"
  var="22.0"/>
 <Airport
  city="Yukon Charley Rivers"
  elev="850"
  id="L20"
  lat="65.311"
  lon="-143.135"
  name="Coal Creek"
  rwy="3850"
  state="AK"
  var="30.0"/>
 <Airport
  city="Abbeville"
  elev="468"
  id="0J0"
  lat="31.600"
  lon="-85.238"
  name="Abbeville Muni"
  rwy="2915"
  state="AL"
  var="-1.0"/>
 <Airport
  city="Addison"
  elev="786"
  id="2A8"
  lat="34.209"
  lon="-87.158"
  name="Addison Muni"
  rwy="2631"
  state="AL"
  var=""/>
 <Airport
  city="Akron"
  elev="369"
  id="AL03"
  lat="35.854"
  lon="-87.724"
  name="Strickland/Smalley Field"
  rwy="2002"
  state="AL"
  var=""/>
 <Airport
  city="Alabaster"
  elev="587"
  id="EET"
  lat="33.177"
  lon="-86.783"
  name="Shelby Co"
  rwy="5000"
  state="AL"
  var="-2.2"/>
 <Airport
  city="Albertville"
  elev="1032"
  id="8A0"
  lat="34.229"
  lon="-86.256"
  name="Albertville Muni Thomas J Brumlik Fld"
  rwy="6116"
  state="AL"
  var="-2.5"/>
 <Airport
  city="Alexander City"
  elev="686"
  id="ALX"
  lat="32.915"
  lon="-85.963"
  name="Thomas C Russell Fld"
  rwy="5425"
  state="AL"
  var="-2.5"/>
 <Airport
  city="Aliceville"
  elev="150"
  id="AIV"
  lat="33.106"
  lon="-88.198"
  name="George Downer"
  rwy="4770"
  state="AL"
  var="-1.1"/>
 <Airport
  city="Andalusia/Opp"
  elev="310"
  id="79J"
  lat="31.309"
  lon="-86.394"
  name="Andalusia Opp"
  rwy="5001"
  state="AL"
  var="-2.2"/>
 <Airport
  city="Anniston"
  elev="612"
  id="ANB"
  lat="33.588"
  lon="-85.858"
  name="Anniston Metro"
  rwy="7000"
  state="AL"
  var="-3.0"/>
 <Airport
  city="Ardmore"
  elev="920"
  id="1M3"
  lat="34.978"
  lon="-86.885"
  name="Ardmore"
  rwy="2700"
  state="AL"
  var=""/>
 <Airport
  city="Ashland/Lineville"
  elev="1065"
  id="26A"
  lat="33.288"
  lon="-85.804"
  name="Ashland Lineville"
  rwy="3947"
  state="AL"
  var="-2.6"/>
 <Airport
  city="Ashville"
  elev="560"
  id="AL60"
  lat="33.839"
  lon="-86.211"
  name="Dugger&apos;s Field"
  rwy="2600"
  state="AL"
  var="-1.0"/>
 <Airport
  city="Ashville"
  elev="540"
  id="28AL"
  lat="33.863"
  lon="-86.121"
  name="Golden Pond"
  rwy="2600"
  state="AL"
  var="-2.0"/>
 <Airport
  city="Atmore"
  elev="287"
  id="0R1"
  lat="31.016"
  lon="-87.447"
  name="Atmore Muni"
  rwy="4776"
  state="AL"
  var="-1.3"/>
 <Airport
  city="Auburn"
  elev="777"
  id="AUO"
  lat="32.615"
  lon="-85.434"
  name="Auburn Opelika Robert G Pitts"
  rwy="5264"
  state="AL"
  var="-3.1"/>
 <Airport
  city="Bay Minette"
  elev="248"
  id="1R8"
  lat="30.870"
  lon="-87.819"
  name="Bay Minette Muni"
  rwy="5497"
  state="AL"
  var="-1.1"/>
 <Airport
  city="Bayou La Batre"
  elev="80"
  id="5R7"
  lat="30.455"
  lon="-88.211"
  name="Roy E. Ray"
  rwy="2000"
  state="AL"
  var="2.0"/>
 <Airport
  city="Bessemer"
  elev="699"
  id="EKY"
  lat="33.313"
  lon="-86.926"
  name="Bessemer"
  rwy="5700"
  state="AL"
  var="-2.1"/>
 <Airport
  city="Birmingham"
  elev="600"
  id="AL40"
  lat="33.543"
  lon="-86.986"
  name="Bonham"
  rwy="1500"
  state="AL"
  var=""/>
 <Airport
  city="Birmingham"
  elev="644"
  id="BHM"
  lat="33.563"
  lon="-86.754"
  name="Birmingham Intl"
  rwy="10000"
  state="AL"
  var="-2.2"/>
 <Airport
  city="Blountsville"
  elev="750"
  id="AL29"
  lat="34.129"
  lon="-86.633"
  name="New Horizon"
  rwy="2500"
  state="AL"
  var=""/>
 <Airport
  city="Branchville"
  elev="730"
  id="3AL6"
  lat="33.490"
  lon="-86.412"
  name="Town &amp; Country Airpark"
  rwy="1000"
  state="AL"
  var="-1.0"/>
 <Airport
  city="Brewton"
  elev="99"
  id="12J"
  lat="31.051"
  lon="-87.066"
  name="Brewton Muni"
  rwy="5135"
  state="AL"
  var="-1.4"/>
 <Airport
  city="Brundidge"
  elev="476"
  id="60A"
  lat="31.733"
  lon="-85.804"
  name="Brundidge Muni"
  rwy="3000"
  state="AL"
  var=""/>
 <Airport
  city="Butler"
  elev="134"
  id="09A"
  lat="32.119"
  lon="-88.127"
  name="Butler Choctaw Co"
  rwy="4080"
  state="AL"
  var="-1.1"/>
 <Airport
  city="Camden"
  elev="143"
  id="61A"
  lat="31.980"
  lon="-87.339"
  name="Camden Muni"
  rwy="4303"
  state="AL"
  var="-1.4"/>
 <Airport
  city="Cedar Bluff"
  elev="670"
  id="AL32"
  lat="34.323"
  lon="-85.644"
  name="Flying M Ranch"
  rwy="2600"
  state="AL"
  var="-3.0"/>
 <Airport
  city="Centre"
  elev="619"
  id="C22"
  lat="34.160"
  lon="-85.635"
  name="Centre Muni"
  rwy="3401"
  state="AL"
  var="-3.1"/>
 <Airport
  city="Centre"
  elev="596"
  id="PYP"
  lat="34.090"
  lon="-85.610"
  name="Centre-Piedmont-cherokee County Rgnl"
  rwy="5500"
  state="AL"
  var="-4.0"/>
 <Airport
  city="Centre"
  elev="610"
  id="AL27"
  lat="34.106"
  lon="-85.566"
  name="Headquarters"
  rwy="2000"
  state="AL"
  var="-1.0"/>
 <Airport
  city="Centreville"
  elev="251"
  id="0A8"
  lat="32.937"
  lon="-87.089"
  name="Bibb Co"
  rwy="4200"
  state="AL"
  var="-2.0"/>
 <Airport
  city="Chapman"
  elev="400"
  id="5AL1"
  lat="31.681"
  lon="-86.682"
  name="Mc Gowin Field"
  rwy="3000"
  state="AL"
  var=""/>
 <Airport
  city="Chatom"
  elev="165"
  id="5R1"
  lat="31.452"
  lon="-88.194"
  name="Roy Wilcox"
  rwy="4000"
  state="AL"
  var="-0.6"/>
 <Airport
  city="Chatom"
  elev="150"
  id="6AL6"
  lat="31.389"
  lon="-88.093"
  name="Hawthorn Pines"
  rwy="2500"
  state="AL"
  var=""/>
 <Airport
  city="Claiborne"
  elev="180"
  id="AL01"
  lat="31.558"
  lon="-87.533"
  name="Bedsole Farm"
  rwy="3000"
  state="AL"
  var="1.0"/>
 <Airport
  city="Clanton"
  elev="585"
  id="02A"
  lat="32.850"
  lon="-86.611"
  name="Gragg Wade Fld"
  rwy="4008"
  state="AL"
  var="-2.2"/>
 <Airport
  city="Clanton"
  elev="344"
  id="01AL"
  lat="32.946"
  lon="-86.514"
  name="Ware Island"
  rwy="2500"
  state="AL"
  var=""/>
 <Airport
  city="Clayton"
  elev="435"
  id="11A"
  lat="31.883"
  lon="-85.485"
  name="Clayton Muni"
  rwy="5010"
  state="AL"
  var="-3.0"/>
 <Airport
  city="Columbiana"
  elev="580"
  id="1AL2"
  lat="33.249"
  lon="-86.597"
  name="Tri-L Acres"
  rwy="2900"
  state="AL"
  var=""/>
 <Airport
  city="Cottondale"
  elev="300"
  id="AL02"
  lat="33.150"
  lon="-87.442"
  name="Rainey Field"
  rwy="2000"
  state="AL"
  var="1.0"/>
 <Airport
  city="Courtland"
  elev="588"
  id="9A4"
  lat="34.659"
  lon="-87.349"
  name="Lawrence Co"
  rwy="5000"
  state="AL"
  var="-2.1"/>
 <Airport
  city="Crawford"
  elev="395"
  id="AL51"
  lat="32.416"
  lon="-85.299"
  name="Flying C&apos;s Plantation"
  rwy="2000"
  state="AL"
  var="-1.0"/>
 <Airport
  city="Creola"
  elev="60"
  id="15A"
  lat="30.913"
  lon="-87.981"
  name="Mark Reynolds/North Mobile County"
  rwy="2000"
  state="AL"
  var="1.0"/>
 <Airport
  city="Cullman"
  elev="969"
  id="3A1"
  lat="34.269"
  lon="-86.858"
  name="Folsom Fld"
  rwy="5500"
  state="AL"
  var="-2.2"/>
 <Airport
  city="Dauphin Island"
  elev="5"
  id="4R9"
  lat="30.260"
  lon="-88.127"
  name="Dauphin Island"
  rwy="2860"
  state="AL"
  var="-0.5"/>
 <Airport
  city="Decatur"
  elev="592"
  id="DCU"
  lat="34.653"
  lon="-86.945"
  name="Pryor Fld Rgnl"
  rwy="6107"
  state="AL"
  var="-2.2"/>
 <Airport
  city="Demopolis"
  elev="113"
  id="DYA"
  lat="32.464"
  lon="-87.954"
  name="Demopolis Muni"
  rwy="5000"
  state="AL"
  var="-2.0"/>
 <Airport
  city="Dothan"
  elev="401"
  id="DHN"
  lat="31.321"
  lon="-85.450"
  name="Dothan Rgnl"
  rwy="8498"
  state="AL"
  var="-2.5"/>
 <Airport
  city="Dothan"
  elev="220"
  id="5AL4"
  lat="31.122"
  lon="-85.365"
  name="Blueberry Hill"
  rwy="2020"
  state="AL"
  var=""/>
 <Airport
  city="Double Springs"
  elev="753"
  id="3M2"
  lat="34.145"
  lon="-87.328"
  name="Double Springs Winston Co"
  rwy="3403"
  state="AL"
  var="-1.6"/>
 <Airport
  city="Elba"
  elev="258"
  id="14J"
  lat="31.410"
  lon="-86.090"
  name="Carl Folsom"
  rwy="3056"
  state="AL"
  var="-2.3"/>
 <Airport
  city="Elberta"
  elev="110"
  id="7AL9"
  lat="30.467"
  lon="-87.542"
  name="Horak"
  rwy="2500"
  state="AL"
  var="1.0"/>
 <Airport
  city="Elberta"
  elev="75"
  id="AL08"
  lat="30.424"
  lon="-87.535"
  name="Perdido Winds Airpark"
  rwy="2400"
  state="AL"
  var=""/>
 <Airport
  city="Elberta"
  elev="95"
  id="AL55"
  lat="30.442"
  lon="-87.464"
  name="Shields"
  rwy="2032"
  state="AL"
  var="1.0"/>
 <Airport
  city="Enterprise"
  elev="364"
  id="EDN"
  lat="31.300"
  lon="-85.900"
  name="Enterprise Muni"
  rwy="5100"
  state="AL"
  var="-2.3"/>
 <Airport
  city="Eufaula"
  elev="285"
  id="EUF"
  lat="31.951"
  lon="-85.129"
  name="Weedon Fld"
  rwy="5000"
  state="AL"
  var="-3.1"/>
 <Airport
  city="Eutaw"
  elev="170"
  id="3A7"
  lat="32.821"
  lon="-87.863"
  name="Eutaw Muni"
  rwy="3600"
  state="AL"
  var="-1.2"/>
 <Airport
  city="Evergreen"
  elev="259"
  id="GZH"
  lat="31.416"
  lon="-87.044"
  name="Middleton Fld"
  rwy="4000"
  state="AL"
  var="-1.5"/>
 <Airport
  city="Fairhope"
  elev="95"
  id="4R4"
  lat="30.461"
  lon="-87.877"
  name="H L Sonny Callahan"
  rwy="6604"
  state="AL"
  var="-1.1"/>
 <Airport
  city="Fairhope"
  elev="111"
  id="AL78"
  lat="30.527"
  lon="-87.854"
  name="Klumpp"
  rwy="2200"
  state="AL"
  var="1.0"/>
 <Airport
  city="Fayette"
  elev="357"
  id="M95"
  lat="33.709"
  lon="-87.815"
  name="Richard Arthur Fld"
  rwy="4899"
  state="AL"
  var="-1.4"/>
 <Airport
  city="Fayette"
  elev="340"
  id="AL00"
  lat="33.744"
  lon="-87.786"
  name="Charlie Wilkes"
  rwy="1800"
  state="AL"
  var=""/>
 <Airport
  city="Flat Rock"
  elev="1430"
  id="4AL7"
  lat="34.745"
  lon="-85.690"
  name="Leon&apos;s Landing"
  rwy="3000"
  state="AL"
  var="-3.0"/>
 <Airport
  city="Flomaton"
  elev="247"
  id="0AL5"
  lat="31.032"
  lon="-87.253"
  name="Flomaton"
  rwy="2200"
  state="AL"
  var=""/>
 <Airport
  city="Florala"
  elev="314"
  id="0J4"
  lat="31.042"
  lon="-86.312"
  name="Florala Muni"
  rwy="3197"
  state="AL"
  var="-2.1"/>
 <Airport
  city="Florence"
  elev="590"
  id="0AL9"
  lat="34.850"
  lon="-87.632"
  name="Wilson Creek"
  rwy="2200"
  state="AL"
  var=""/>
 <Airport
  city="Foley"
  elev="61"
  id="02AL"
  lat="30.371"
  lon="-87.764"
  name="Bass Field"
  rwy="2000"
  state="AL"
  var=""/>
 <Airport
  city="Foley"
  elev="120"
  id="AL15"
  lat="30.403"
  lon="-87.724"
  name="Styron"
  rwy="2600"
  state="AL"
  var="1.0"/>
 <Airport
  city="Foley"
  elev="74"
  id="5R4"
  lat="30.428"
  lon="-87.701"
  name="Foley Muni"
  rwy="3700"
  state="AL"
  var="-1.1"/>
 <Airport
  city="Foley"
  elev="97"
  id="0AL1"
  lat="30.444"
  lon="-87.657"
  name="Resort"
  rwy="2640"
  state="AL"
  var="1.0"/>
 <Airport
  city="Foley"
  elev="54"
  id="NBJ"
  lat="30.389"
  lon="-87.635"
  name="Barin Nolf"
  rwy="4000"
  state="AL"
  var="-1.1"/>
 <Airport
  city="Fort Deposit"
  elev="490"
  id="67A"
  lat="31.972"
  lon="-86.592"
  name="Fort Deposit Lowndes Co"
  rwy="3593"
  state="AL"
  var="-2.1"/>
 <Airport
  city="Fort Payne"
  elev="877"
  id="4A9"
  lat="34.474"
  lon="-85.721"
  name="Isbell Fld"
  rwy="5001"
  state="AL"
  var="-3.2"/>
 <Airport
  city="Fort Payne"
  elev="1430"
  id="2AL5"
  lat="34.393"
  lon="-85.665"
  name="Flying J Ranch"
  rwy="1925"
  state="AL"
  var="-1.0"/>
 <Airport
  city="Fort Rucker"
  elev="301"
  id="OZR"
  lat="31.276"
  lon="-85.713"
  name="Cairns Aaf"
  rwy="5000"
  state="AL"
  var="-2.4"/>
 <Airport
  city="Gadsden"
  elev="569"
  id="GAD"
  lat="33.973"
  lon="-86.089"
  name="Northeast Alabama Rgnl"
  rwy="6802"
  state="AL"
  var="-2.5"/>
 <Airport
  city="Gardendale"
  elev="590"
  id="AL18"
  lat="33.676"
  lon="-86.867"
  name="Parker Field"
  rwy="1550"
  state="AL"
  var=""/>
 <Airport
  city="Geiger"
  elev="200"
  id="AL43"
  lat="32.908"
  lon="-88.333"
  name="Henley Ranch"
  rwy="3000"
  state="AL"
  var="1.0"/>
 <Airport
  city="Geneva"
  elev="101"
  id="33J"
  lat="31.055"
  lon="-85.880"
  name="Geneva Muni"
  rwy="3984"
  state="AL"
  var="-2.3"/>
 <Airport
  city="Greensboro"
  elev="180"
  id="7A0"
  lat="32.681"
  lon="-87.662"
  name="Greensboro Muni"
  rwy="3495"
  state="AL"
  var="-1.3"/>
 <Airport
  city="Greenville"
  elev="451"
  id="PRN"
  lat="31.846"
  lon="-86.611"
  name="Mac Crenshaw Mem"
  rwy="5500"
  state="AL"
  var="-2.1"/>
 <Airport
  city="Grove Hill"
  elev="478"
  id="3A0"
  lat="31.689"
  lon="-87.761"
  name="Grove Hill Muni"
  rwy="2704"
  state="AL"
  var="1.0"/>
 <Airport
  city="Gulf Shores"
  elev="17"
  id="JKA"
  lat="30.290"
  lon="-87.672"
  name="Jack Edwards"
  rwy="6962"
  state="AL"
  var="-1.1"/>
 <Airport
  city="Guntersville"
  elev="615"
  id="8A1"
  lat="34.399"
  lon="-86.270"
  name="Guntersville Muni Joe Starnes Fld"
  rwy="3368"
  state="AL"
  var="-2.5"/>
 <Airport
  city="Gurley"
  elev="650"
  id="AL10"
  lat="34.651"
  lon="-86.417"
  name="Frerichs"
  rwy="2500"
  state="AL"
  var=""/>
 <Airport
  city="Haleyville"
  elev="930"
  id="1M4"
  lat="34.280"
  lon="-87.600"
  name="Posey Fld"
  rwy="5008"
  state="AL"
  var="-1.5"/>
 <Airport
  city="Hamilton"
  elev="442"
  id="HAB"
  lat="34.118"
  lon="-87.998"
  name="Marion Co Rankin Fite"
  rwy="5500"
  state="AL"
  var="-1.3"/>
 <Airport
  city="Hanceville"
  elev="625"
  id="2AL7"
  lat="34.063"
  lon="-86.723"
  name="Mount Aero Lake Farm"
  rwy="2600"
  state="AL"
  var="-1.0"/>
 <Airport
  city="Harpersville"
  elev="420"
  id="AL92"
  lat="33.307"
  lon="-86.404"
  name="Hawk Field"
  rwy="3400"
  state="AL"
  var="-1.0"/>
 <Airport
  city="Hartford"
  elev="264"
  id="3AL1"
  lat="31.050"
  lon="-85.685"
  name="Flying H Ranch"
  rwy="1800"
  state="AL"
  var="-2.0"/>
 <Airport
  city="Hartford"
  elev="255"
  id="AL62"
  lat="31.083"
  lon="-85.684"
  name="Striplin Airfield"
  rwy="2600"
  state="AL"
  var=""/>
 <Airport
  city="Hartselle"
  elev="628"
  id="5M0"
  lat="34.408"
  lon="-86.933"
  name="Rountree Fld"
  rwy="3599"
  state="AL"
  var="-2.2"/>
 <Airport
  city="Harvest"
  elev="820"
  id="00AL"
  lat="34.865"
  lon="-86.770"
  name="Epps Airpark"
  rwy="2300"
  state="AL"
  var=""/>
 <Airport
  city="Hazel Green"
  elev="814"
  id="M38"
  lat="34.916"
  lon="-86.647"
  name="Hazel Green"
  rwy="2670"
  state="AL"
  var=""/>
 <Airport
  city="Headland"
  elev="359"
  id="0J6"
  lat="31.364"
  lon="-85.312"
  name="Headland Muni"
  rwy="5002"
  state="AL"
  var="-3.0"/>
 <Airport
  city="Henagar"
  elev="1340"
  id="6AL3"
  lat="34.582"
  lon="-85.756"
  name="Sweet Home"
  rwy="1300"
  state="AL"
  var=""/>
 <Airport
  city="Huntsville"
  elev="629"
  id="HSV"
  lat="34.637"
  lon="-86.775"
  name="Huntsville Intl Carl T Jones Fld"
  rwy="12600"
  state="AL"
  var="-2.3"/>
 <Airport
  city="Huntsville"
  elev="830"
  id="AL93"
  lat="34.886"
  lon="-86.710"
  name="Big Sky"
  rwy="2450"
  state="AL"
  var="-1.0"/>
 <Airport
  city="Huntsville"
  elev="639"
  id="4AL8"
  lat="34.491"
  lon="-86.673"
  name="Milton"
  rwy="2600"
  state="AL"
  var=""/>
 <Airport
  city="Huntsville"
  elev="756"
  id="MDQ"
  lat="34.861"
  lon="-86.557"
  name="Madison Co Executive"
  rwy="5008"
  state="AL"
  var="-2.4"/>
 <Airport
  city="Huntsville"
  elev="650"
  id="3M5"
  lat="34.747"
  lon="-86.461"
  name="Moontown"
  rwy="2180"
  state="AL"
  var="-1.0"/>
 <Airport
  city="Hurtsboro"
  elev="331"
  id="AL05"
  lat="32.220"
  lon="-85.468"
  name="Sehoy"
  rwy="5000"
  state="AL"
  var="-3.0"/>
 <Airport
  city="Jack"
  elev="335"
  id="AL37"
  lat="31.555"
  lon="-85.977"
  name="Benedick"
  rwy="1800"
  state="AL"
  var=""/>
 <Airport
  city="Jackson"
  elev="39"
  id="4R3"
  lat="31.472"
  lon="-87.895"
  name="Jackson Muni"
  rwy="4995"
  state="AL"
  var="-1.1"/>
 <Airport
  city="Jacksonville"
  elev="750"
  id="3AL5"
  lat="33.835"
  lon="-85.764"
  name="Edwards Farm"
  rwy="1700"
  state="AL"
  var="-2.0"/>
 <Airport
  city="Jasper"
  elev="482"
  id="JFX"
  lat="33.902"
  lon="-87.314"
  name="Walker Co Bevill Fld"
  rwy="5003"
  state="AL"
  var="-1.6"/>
 <Airport
  city="Kinston"
  elev="300"
  id="5AL7"
  lat="31.250"
  lon="-86.167"
  name="Hataway Field"
  rwy="1320"
  state="AL"
  var="-1.0"/>
 <Airport
  city="Lanett"
  elev="624"
  id="7A3"
  lat="32.812"
  lon="-85.230"
  name="Lanett Muni"
  rwy="3148"
  state="AL"
  var="-3.2"/>
 <Airport
  city="Lapine"
  elev="438"
  id="4AL9"
  lat="31.975"
  lon="-86.294"
  name="T W Spear Memorial"
  rwy="2909"
  state="AL"
  var="-1.0"/>
 <Airport
  city="Lillian"
  elev="80"
  id="AL88"
  lat="30.427"
  lon="-87.471"
  name="Ban Farm"
  rwy="1320"
  state="AL"
  var="1.0"/>
 <Airport
  city="Linden"
  elev="161"
  id="70A"
  lat="32.267"
  lon="-87.718"
  name="Freddie Jones Fld"
  rwy="3390"
  state="AL"
  var="-1.2"/>
 <Airport
  city="Loxley"
  elev="170"
  id="1AL5"
  lat="30.636"
  lon="-87.748"
  name="Berry Field"
  rwy="1300"
  state="AL"
  var="1.0"/>
 <Airport
  city="Loxley"
  elev="190"
  id="57AL"
  lat="30.653"
  lon="-87.724"
  name="Baswell"
  rwy="1400"
  state="AL"
  var=""/>
 <Airport
  city="Loxley"
  elev="125"
  id="AL35"
  lat="30.620"
  lon="-87.704"
  name="Mc Ginnis"
  rwy="1450"
  state="AL"
  var="1.0"/>
 <Airport
  city="Loxley"
  elev="162"
  id="AL97"
  lat="30.645"
  lon="-87.669"
  name="Williamson Farm"
  rwy="2000"
  state="AL"
  var="1.0"/>
 <Airport
  city="Luverne"
  elev="300"
  id="04A"
  lat="31.736"
  lon="-86.262"
  name="Frank Sikes"
  rwy="3900"
  state="AL"
  var="-2.2"/>
 <Airport
  city="Magnolia Springs"
  elev="74"
  id="2AL1"
  lat="30.424"
  lon="-87.778"
  name="Collier Airpark"
  rwy="2900"
  state="AL"
  var="1.0"/>
 <Airport
  city="Maplesville"
  elev="495"
  id="AL76"
  lat="32.849"
  lon="-86.870"
  name="Mayfield (pvt)"
  rwy="3200"
  state="AL"
  var=""/>
 <Airport
  city="Marion"
  elev="225"
  id="A08"
  lat="32.512"
  lon="-87.386"
  name="Vaiden Fld"
  rwy="6377"
  state="AL"
  var="-1.4"/>
 <Airport
  city="Mentone"
  elev="1692"
  id="AL09"
  lat="34.533"
  lon="-85.590"
  name="Cloudmont Airpark"
  rwy="2450"
  state="AL"
  var="-1.0"/>
 <Airport
  city="Mobile"
  elev="150"
  id="62AL"
  lat="30.684"
  lon="-88.372"
  name="Skywest Airpark"
  rwy="2467"
  state="AL"
  var="1.0"/>
 <Airport
  city="Mobile"
  elev="180"
  id="26AL"
  lat="30.624"
  lon="-88.279"
  name="Richardson Field"
  rwy="2700"
  state="AL"
  var=""/>
 <Airport
  city="Mobile"
  elev="219"
  id="MOB"
  lat="30.691"
  lon="-88.243"
  name="Mobile Rgnl"
  rwy="8521"
  state="AL"
  var="-0.5"/>
 <Airport
  city="Mobile"
  elev="26"
  id="BFM"
  lat="30.627"
  lon="-88.068"
  name="Mobile Downtown"
  rwy="9618"
  state="AL"
  var="-0.6"/>
